#Recorded on Tsukasa 5, while it was sitting on the dining room table at Casa del Kwan

10:44:09.764$GPGSA,A,1,,,,,,,,,,,,,,,*1E

10:44:09.764$GPVTG,,T,,M,,N,,K,N*2C

10:44:09.764$GPRMC,,V,,,,,,,,,,N*53

10:44:09.764$GPGGA,,,,,,0,,,,,,,,*66

10:44:10.766$GPGSV,3,1,10,07,28,140,34,01,34,078,,08,02,046,,11,33,059,*78

10:44:10.766$GPGSV,3,2,10,13,35,272,,15,16,303,,17,57,220,,19,28,219,*75

10:44:10.766$GPGSV,3,3,10,28,67,357,,30,56,143,*74

10:44:10.766$GLGSV,2,1,08,78,35,111,,70,04,289,,82,41,196,,80,30,322,*6F

10:44:10.766$GLGSV,2,2,08,79,69,052,,88,24,030,,81,76,077,,71,03,336,*65

10:44:11.013$GPGSV,3,1,10,01,00,000,24,07,00,000,34,11,00,000,27,13,00,000,26*7E

10:44:11.013$GPGSV,3,2,10,17,00,000,28,19,00,000,29,30,00,000,22,08,00,000,*7D

10:44:11.013$GPGSV,3,3,10,15,00,000,,28,00,000,*76

10:44:11.013$GLGSV,1,1,0,*79

10:44:11.016$GPGSA,A,3,01,07,11,13,17,19,,,,,,,2.5,1.1,2.3*3E

10:44:11.016$GPVTG,0.0,T,0.0,M,1.2,N,2.3,K,A*21

10:44:11.016$GPRMC,164411,A,4011.566746,N,10505.395099,W,1.2,0.0,230716,7.7,E,A*06

10:44:11.016$GPGGA,164411,4011.566746,N,10505.395099,W,1,06,1.1,1564.0,M,-21.0,M,,*43

10:44:11.094$GPGSV,3,1,10,01,00,000,24,07,00,000,34,11,00,000,27,13,00,000,26*7E

10:44:11.094$GPGSV,3,2,10,17,00,000,28,19,00,000,29,30,00,000,22,08,00,000,*7D

10:44:11.094$GPGSV,3,3,10,15,00,000,,28,00,000,*76

10:44:11.094$GLGSV,1,1,0,*79

10:44:11.095$GPGSA,A,3,01,07,11,13,17,19,,,,,,,2.5,1.1,2.3*3E

10:44:11.095$GPVTG,0.0,T,0.0,M,1.2,N,2.3,K,A*21

10:44:11.096$GPRMC,164412,A,4011.566547,N,10505.395147,W,1.2,0.0,230716,7.7,E,A*04

10:44:11.096$GPGGA,164412,4011.566547,N,10505.395147,W,1,06,1.1,1564.0,M,-21.0,M,,*41

10:44:12.106$GPGSV,3,1,10,01,34,078,25,07,28,140,34,11,33,059,27,13,35,272,24*77

10:44:12.107$GPGSV,3,2,10,15,16,303,22,17,57,220,29,19,28,219,28,30,56,143,22*71

10:44:12.107$GPGSV,3,3,10,08,02,046,,28,67,357,*7A

10:44:12.107$GLGSV,2,1,08,78,35,111,21,82,41,196,36,79,69,052,23,81,76,077,28*64

10:44:12.107$GLGSV,2,2,08,70,04,289,,80,30,322,,88,24,030,,71,03,336,*63

10:44:12.107$GPGSA,A,3,01,07,11,13,15,17,19,30,,,,,1.2,0.9,0.9*3C

10:44:12.107$GPVTG,,T,,M,0.0,N,0.0,K,A*23

10:44:12.107$GPRMC,164413,A,4011.566906,N,10505.395693,W,0.0,,230716,7.7,E,A*2F

10:44:12.107$GPGGA,164413,4011.566906,N,10505.395693,W,1,08,0.9,1561.0,M,-21.0,M,,*45

10:44:13.117$GPGSV,3,1,10,01,34,078,25,07,28,140,34,11,33,059,28,13,35,272,23*7F

10:44:13.117$GPGSV,3,2,10,15,16,303,21,17,57,220,28,19,28,219,28,30,56,143,22*73

10:44:13.117$GPGSV,3,3,10,08,02,046,,28,67,357,*7A

10:44:13.117$GLGSV,2,1,08,78,35,111,20,82,41,196,36,79,69,052,24,88,24,030,17*63

10:44:13.117$GLGSV,2,2,08,81,76,077,28,70,04,289,,80,30,322,,71,03,336,*64

10:44:13.118$GPGSA,A,3,01,07,11,13,15,17,19,30,,,,,1.2,0.9,0.9*3C

10:44:13.118$GPVTG,,T,,M,0.0,N,0.0,K,A*23

10:44:13.118$GPRMC,164414,A,4011.567048,N,10505.396483,W,0.0,,230716,7.7,E,A*2A

10:44:13.118$GPGGA,164414,4011.567048,N,10505.396483,W,1,08,0.9,1557.0,M,-21.0,M,,*45

10:44:14.117$GPGSV,3,1,10,01,34,078,29,07,28,140,34,11,33,059,26,13,35,272,24*7A

10:44:14.118$GPGSV,3,2,10,15,16,303,21,17,57,220,28,19,28,219,29,30,56,143,20*70

10:44:14.118$GPGSV,3,3,10,08,02,046,,28,67,357,*7A

10:44:14.118$GLGSV,2,1,08,78,35,111,20,82,41,196,35,79,69,052,25,88,24,030,16*60

10:44:14.118$GLGSV,2,2,08,81,76,077,26,70,04,289,,80,30,322,,71,03,336,*6A

10:44:14.120$GPGSA,A,3,01,07,11,13,15,17,19,30,,,,,1.2,0.8,0.8*3C

10:44:14.120$GPVTG,,T,,M,0.0,N,0.0,K,A*23

10:44:14.120$GPRMC,164415,A,4011.567084,N,10505.397016,W,0.0,,230716,7.7,E,A*22

10:44:14.120$GPGGA,164415,4011.567084,N,10505.397016,W,1,08,0.8,1555.0,M,-21.0,M,,*4E

10:44:15.119$GPGSV,3,1,10,01,34,078,31,07,28,140,32,11,33,059,20,13,35,272,23*74

10:44:15.119$GPGSV,3,2,10,15,16,303,20,17,57,220,26,19,28,219,27,28,67,357,23*7E

10:44:15.119$GPGSV,3,3,10,30,56,143,19,08,02,046,*7E

10:44:15.119$GLGSV,2,1,08,78,35,111,25,82,41,196,34,79,69,052,28,88,24,030,16*69

10:44:15.119$GLGSV,2,2,08,81,76,077,22,70,04,289,,80,30,322,,71,03,336,*6E

10:44:15.121$GPGSA,A,3,01,07,11,13,15,17,19,28,30,,,,1.1,0.8,0.8*35

10:44:15.121$GPVTG,,T,,M,0.0,N,0.0,K,A*23

10:44:15.121$GPRMC,164416,A,4011.566590,N,10505.397476,W,0.0,,230716,7.7,E,A*22

10:44:15.121$GPGGA,164416,4011.566590,N,10505.397476,W,1,09,0.8,1553.0,M,-21.0,M,,*49

10:44:16.119$GPGSV,3,1,10,01,34,078,29,07,28,140,32,08,02,046,15,11,33,059,28*7B

10:44:16.119$GPGSV,3,2,10,13,35,272,22,15,16,303,21,17,57,220,29,19,28,219,22*7D

10:44:16.119$GPGSV,3,3,10,28,67,357,17,30,56,143,21*71

10:44:16.119$GLGSV,2,1,08,78,35,111,24,82,41,196,31,79,69,052,27,88,24,030,15*61

10:44:16.119$GLGSV,2,2,08,81,76,077,21,70,04,289,,80,30,322,,71,03,336,*6D

10:44:16.119$GPGSA,A,3,01,07,08,11,13,15,17,19,28,30,,,1.1,0.8,0.8*3D

10:44:16.119$GPVTG,,T,,M,0.0,N,0.0,K,A*23

10:44:16.119$GPRMC,164417,A,4011.566763,N,10505.397401,W,0.0,,230716,7.7,E,A*2D

10:44:16.119$GPGGA,164417,4011.566763,N,10505.397401,W,1,10,0.8,1550.0,M,-21.0,M,,*4D

10:44:17.118$GPGSV,3,1,10,01,34,078,23,07,28,140,30,08,02,046,15,11,33,059,24*7F

10:44:17.119$GPGSV,3,2,10,13,35,272,21,15,16,303,18,17,57,220,29,19,28,219,27*71

10:44:17.119$GPGSV,3,3,10,28,67,357,24,30,56,143,21*71

10:44:17.119$GLGSV,2,1,08,78,35,111,20,82,41,196,26,80,30,322,14,79,69,052,20*68

10:44:17.119$GLGSV,2,2,08,88,24,030,15,81,76,077,22,70,04,289,,71,03,336,*67

10:44:17.119$GPGSA,A,3,01,07,08,11,13,15,17,19,28,30,,,1.1,0.8,0.8*3D

10:44:17.119$GPVTG,,T,,M,0.0,N,0.0,K,A*23

10:44:17.119$GPRMC,164418,A,4011.567187,N,10505.397575,W,0.0,,230716,7.7,E,A*2D

10:44:17.119$GPGGA,164418,4011.567187,N,10505.397575,W,1,10,0.8,1547.0,M,-21.0,M,,*4B

10:44:18.118$GPGSV,3,1,10,01,34,078,23,07,28,140,26,08,02,046,15,11,33,059,24*78

10:44:18.118$GPGSV,3,2,10,13,35,272,19,15,16,303,18,17,57,220,21,19,28,219,21*74

10:44:18.118$GPGSV,3,3,10,28,67,357,22,30,56,143,20*76

10:44:18.118$GLGSV,2,1,08,78,35,111,20,82,41,196,25,80,30,322,14,79,69,052,20*6B

10:44:18.118$GLGSV,2,2,08,88,24,030,15,81,76,077,21,70,04,289,,71,03,336,*64

10:44:18.118$GPGSA,A,3,01,07,08,11,13,15,17,19,28,30,,,1.1,0.8,0.8*3D

10:44:18.118$GPVTG,,T,,M,0.0,N,0.0,K,A*23

10:44:18.118$GPRMC,164419,A,4011.567215,N,10505.397463,W,0.0,,230716,7.7,E,A*22

10:44:18.118$GPGGA,164419,4011.567215,N,10505.397463,W,1,10,0.8,1546.0,M,-21.0,M,,*45

10:44:19.116$GPGSV,3,1,10,01,34,078,29,07,28,140,25,08,02,046,14,11,33,059,26*72

10:44:19.116$GPGSV,3,2,10,13,35,272,28,15,16,303,18,17,57,220,25,19,28,219,17*77

10:44:19.116$GPGSV,3,3,10,28,67,357,23,30,56,143,28*7F

10:44:19.116$GLGSV,2,1,08,78,35,111,16,82,41,196,32,80,30,322,14,79,69,052,17*6C

10:44:19.116$GLGSV,2,2,08,88,24,030,15,81,76,077,22,70,04,289,,71,03,336,*67

10:44:19.118$GPGSA,A,3,01,07,08,11,13,15,17,19,28,30,,,1.1,0.8,0.8*3D

10:44:19.118$GPVTG,,T,,M,0.0,N,0.0,K,A*23

10:44:19.118$GPRMC,164420,A,4011.567095,N,10505.397461,W,0.0,,230716,7.7,E,A*20

10:44:19.118$GPGGA,164420,4011.567095,N,10505.397461,W,1,10,0.8,1547.0,M,-21.0,M,,*46

10:44:20.117$GPGSV,3,1,10,01,34,078,27,07,28,140,23,08,02,046,14,11,33,059,26*7A

10:44:20.117$GPGSV,3,2,10,13,35,272,27,15,16,303,17,17,57,220,28,19,28,219,22*7C

10:44:20.117$GPGSV,3,3,10,28,67,357,24,30,56,143,30*71

10:44:20.117$GLGSV,2,1,08,78,35,111,16,82,41,196,32,80,30,322,14,79,69,052,18*63

10:44:20.117$GLGSV,2,2,08,88,24,030,14,81,76,077,22,70,04,289,,71,03,336,*66

10:44:20.118$GPGSA,A,3,01,07,08,11,13,15,17,19,28,30,,,1.1,0.8,0.8*3D

10:44:20.118$GPVTG,,T,,M,0.0,N,0.0,K,A*23

10:44:20.118$GPRMC,164421,A,4011.566856,N,10505.397302,W,0.0,,230716,7.7,E,A*25

10:44:20.118$GPGGA,164421,4011.566856,N,10505.397302,W,1,10,0.8,1548.0,M,-21.0,M,,*4C

10:44:21.118$GPGSV,3,1,10,01,34,078,23,07,28,140,27,08,02,046,14,11,33,059,27*7B

10:44:21.118$GPGSV,3,2,10,13,35,272,28,15,16,303,17,17,57,220,30,19,28,219,25*7D

10:44:21.118$GPGSV,3,3,10,28,67,357,26,30,56,143,31*72

10:44:21.118$GLGSV,2,1,08,78,35,111,15,82,41,196,27,80,30,322,14,79,69,052,24*6B

10:44:21.118$GLGSV,2,2,08,88,24,030,16,81,76,077,31,70,04,289,,71,03,336,*66

10:44:21.118$GPGSA,A,3,01,07,08,11,13,15,17,19,28,30,,,1.1,0.8,0.8*3D

10:44:21.118$GPVTG,,T,,M,0.0,N,0.0,K,A*23

10:44:21.118$GPRMC,164422,A,4011.566628,N,10505.397350,W,0.0,,230716,7.7,E,A*26

10:44:21.118$GPGGA,164422,4011.566628,N,10505.397350,W,1,10,0.8,1549.0,M,-21.0,M,,*4E

10:44:22.116$GPGSV,3,1,10,01,34,078,23,07,28,140,29,08,02,046,14,11,33,059,27*75

10:44:22.116$GPGSV,3,2,10,13,35,272,29,15,16,303,17,17,57,220,24,19,28,219,20*7C

10:44:22.116$GPGSV,3,3,10,28,67,357,25,30,56,143,31*71

10:44:22.116$GLGSV,2,1,08,78,35,111,15,82,41,196,22,80,30,322,14,79,69,052,23*69

10:44:22.116$GLGSV,2,2,08,88,24,030,18,81,76,077,34,70,04,289,,71,03,336,*6D

10:44:22.118$GPGSA,A,3,01,07,08,11,13,15,17,19,28,30,,,1.1,0.8,0.8*3D

10:44:22.118$GPVTG,,T,,M,0.0,N,0.0,K,A*23

10:44:22.119$GPRMC,164423,A,4011.566519,N,10505.397347,W,0.0,,230716,7.7,E,A*20

10:44:22.119$GPGGA,164423,4011.566519,N,10505.397347,W,1,10,0.8,1550.0,M,-21.0,M,,*40

10:44:23.116$GPGSV,3,1,10,01,34,078,26,07,28,140,28,08,02,046,13,11,33,059,18*7A

10:44:23.116$GPGSV,3,2,10,13,35,272,29,15,16,303,14,17,57,220,22,19,28,219,20*79

10:44:23.117$GPGSV,3,3,10,28,67,357,28,30,56,143,30*7D

10:44:23.117$GLGSV,2,1,08,78,35,111,15,82,41,196,24,80,30,322,12,79,69,052,19*60

10:44:23.117$GLGSV,2,2,08,88,24,030,22,81,76,077,32,70,04,289,,71,03,336,*62

10:44:23.117$GPGSA,A,3,01,07,08,11,13,15,17,19,28,30,,,1.1,0.8,0.8*3D

10:44:23.117$GPVTG,,T,,M,0.0,N,0.0,K,A*23

10:44:23.117$GPRMC,164424,A,4011.566540,N,10505.397343,W,0.0,,230716,7.7,E,A*2F

10:44:23.117$GPGGA,164424,4011.566540,N,10505.397343,W,1,10,0.8,1551.0,M,-21.0,M,,*4E

10:44:24.117$GPGSV,3,1,10,01,34,078,27,07,28,140,28,08,02,046,13,11,33,059,21*71

10:44:24.117$GPGSV,3,2,10,13,35,272,27,15,16,303,14,17,57,220,23,19,28,219,20*76

10:44:24.117$GPGSV,3,3,10,28,67,357,28,30,56,143,27*7B

10:44:24.117$GLGSV,2,1,08,78,35,111,15,82,41,196,23,80,30,322,12,79,69,052,18*66

10:44:24.117$GLGSV,2,2,08,88,24,030,22,81,76,077,28,70,04,289,,71,03,336,*69

10:44:24.117$GPGSA,A,3,01,07,08,11,13,15,17,19,28,30,,,1.1,0.8,0.8*3D

10:44:24.117$GPVTG,,T,,M,0.0,N,0.0,K,A*23

10:44:24.118$GPRMC,164425,A,4011.566493,N,10505.397324,W,0.0,,230716,7.7,E,A*20

10:44:24.118$GPGGA,164425,4011.566493,N,10505.397324,W,1,10,0.8,1551.0,M,-21.0,M,,*41

10:44:25.116$GPGSV,3,1,10,01,34,078,28,07,28,140,26,08,02,046,13,11,33,059,25*74

10:44:25.116$GPGSV,3,2,10,13,35,272,26,15,16,303,14,17,57,220,25,19,28,219,19*7B

10:44:25.116$GPGSV,3,3,10,28,67,357,28,30,56,143,26*7A

10:44:25.116$GLGSV,2,1,08,78,35,111,12,82,41,196,24,80,30,322,12,79,69,052,17*69

10:44:25.116$GLGSV,2,2,08,88,24,030,21,81,76,077,29,70,04,289,,71,03,336,*6B

10:44:25.117$GPGSA,A,3,01,07,08,11,13,15,17,19,28,30,,,1.1,0.8,0.8*3D

10:44:25.117$GPVTG,,T,,M,0.0,N,0.0,K,A*23

10:44:25.117$GPRMC,164426,A,4011.566529,N,10505.397300,W,0.0,,230716,7.7,E,A*25

10:44:25.117$GPGGA,164426,4011.566529,N,10505.397300,W,1,10,0.8,1551.0,M,-21.0,M,,*44

10:44:26.117$GPGSV,3,1,10,01,34,078,24,07,28,140,26,08,02,046,13,11,33,059,22*7F

10:44:26.117$GPGSV,3,2,10,13,35,272,28,15,16,303,14,17,57,220,25,19,28,219,21*7E

10:44:26.117$GPGSV,3,3,10,28,67,357,27,30,56,143,26*75

10:44:26.117$GLGSV,2,1,08,78,35,111,12,82,41,196,24,80,30,322,12,79,69,052,19*67

10:44:26.117$GLGSV,2,2,08,88,24,030,21,81,76,077,29,70,04,289,,71,03,336,*6B

10:44:26.119$GPGSA,A,3,01,07,08,11,13,15,17,19,28,30,,,1.1,0.8,0.8*3D

10:44:26.119$GPVTG,,T,,M,0.0,N,0.0,K,A*23

10:44:26.119$GPRMC,164427,A,4011.566506,N,10505.397311,W,0.0,,230716,7.7,E,A*29

10:44:26.119$GPGGA,164427,4011.566506,N,10505.397311,W,1,10,0.8,1551.0,M,-21.0,M,,*48

10:44:27.120$GPGSV,3,1,10,01,34,078,28,07,28,140,30,08,02,046,13,11,33,059,22*74

10:44:27.120$GPGSV,3,2,10,13,35,272,25,15,16,303,13,17,57,220,32,19,28,219,30*72

10:44:27.120$GPGSV,3,3,10,28,67,357,25,30,56,143,32*72

10:44:27.120$GLGSV,2,1,08,78,35,111,12,82,41,196,30,80,30,322,12,79,69,052,23*6B

10:44:27.120$GLGSV,2,2,08,88,24,030,18,81,76,077,32,70,04,289,,71,03,336,*6B

10:44:27.120$GPGSA,A,3,01,07,08,11,13,15,17,19,28,30,,,1.1,0.8,0.8*3D

10:44:27.120$GPVTG,,T,,M,0.0,N,0.0,K,A*23

10:44:27.120$GPRMC,164428,A,4011.566505,N,10505.397342,W,0.0,,230716,7.7,E,A*23

10:44:27.120$GPGGA,164428,4011.566505,N,10505.397342,W,1,10,0.8,1550.0,M,-21.0,M,,*43

10:44:28.117$GPGSV,3,1,10,01,34,078,29,07,28,140,28,08,02,046,13,11,33,059,22*7C

10:44:28.118$GPGSV,3,2,10,13,35,272,25,15,16,303,13,17,57,220,31,19,28,219,27*77

10:44:28.118$GPGSV,3,3,10,28,67,357,24,30,56,143,32*73

10:44:28.119$GLGSV,2,1,08,78,35,111,12,82,41,196,31,80,30,322,12,79,69,052,23*6A

10:44:28.119$GLGSV,2,2,08,88,24,030,18,81,76,077,30,70,04,289,,71,03,336,*69

10:44:28.119$GPGSA,A,3,01,07,08,11,13,15,17,19,28,30,,,1.1,0.8,0.8*3D

10:44:28.119$GPVTG,,T,,M,0.0,N,0.0,K,A*23

10:44:28.119$GPRMC,164429,A,4011.566502,N,10505.397340,W,0.0,,230716,7.7,E,A*27

10:44:28.119$GPGGA,164429,4011.566502,N,10505.397340,W,1,10,0.8,1550.0,M,-21.0,M,,*47

10:44:29.138$GPGSV,2,1,08,01,34,078,28,11,33,059,27,15,16,303,21,19,28,219,24*76

10:44:29.138$GPGSV,2,2,08,28,67,357,27,30,56,143,27,08,02,046,,13,35,272,*76

10:44:29.138$GLGSV,2,1,08,78,35,111,20,82,41,196,29,79,69,052,28,88,24,030,22*67

10:44:29.138$GLGSV,2,2,08,81,76,077,26,70,04,289,,80,30,322,,71,03,336,*6A

10:44:29.143$GPGSA,A,3,01,11,15,19,28,30,,,,,,,1.1,0.8,0.8*36

10:44:29.143$GPVTG,,T,,M,0.0,N,0.0,K,A*23

10:44:29.143$GPRMC,164430,A,4011.566412,N,10505.397240,W,0.0,,230716,7.7,E,A*2E

10:44:29.143$GPGGA,164430,4011.566412,N,10505.397240,W,1,06,0.8,1551.0,M,-21.0,M,,*48

10:44:30.147$GPGSV,3,1,10,01,34,078,25,11,33,059,29,13,35,272,23,15,16,303,23*73

10:44:30.147$GPGSV,3,2,10,19,28,219,21,28,67,357,27,30,56,143,27,07,28,140,*76

10:44:30.147$GPGSV,3,3,10,08,02,046,,17,57,220,*74

10:44:30.148$GLGSV,2,1,08,78,35,111,20,82,41,196,28,79,69,052,28,88,24,030,23*67

10:44:30.148$GLGSV,2,2,08,81,76,077,27,70,04,289,,80,30,322,,71,03,336,*6B

10:44:30.152$GPGSA,A,3,01,11,13,15,19,28,30,,,,,,1.1,0.8,0.8*34

10:44:30.152$GPVTG,,T,,M,0.0,N,0.0,K,A*23

10:44:30.153$GPRMC,164431,A,4011.566376,N,10505.397199,W,0.0,,230716,7.7,E,A*2D

10:44:30.153$GPGGA,164431,4011.566376,N,10505.397199,W,1,07,0.8,1551.0,M,-21.0,M,,*4A

10:44:31.134$GPGSV,2,1,07,01,34,078,26,11,33,059,29,28,67,357,27,30,56,143,27*7B

10:44:31.134$GPGSV,2,2,07,07,28,140,,08,02,046,,17,57,220,*4A

10:44:31.134$GLGSV,2,1,08,78,35,111,23,82,41,196,29,79,69,052,29,88,24,030,24*63

10:44:31.134$GLGSV,2,2,08,81,76,077,27,70,04,289,,80,30,322,,71,03,336,*6B

10:44:31.139$GPGSA,A,3,01,11,28,30,,,,,,,,,1.1,0.8,0.8*3A

10:44:31.139$GPVTG,,T,,M,0.0,N,0.0,K,A*23

10:44:31.139$GPRMC,164432,A,4011.566378,N,10505.397204,W,0.0,,230716,7.7,E,A*27

10:44:31.139$GPGGA,164432,4011.566378,N,10505.397204,W,1,04,0.8,1551.0,M,-21.0,M,,*43

10:44:32.130$GPGSV,3,1,10,01,34,078,29,11,33,059,29,19,28,219,24,28,67,357,28*71

10:44:32.130$GPGSV,3,2,10,30,56,143,28,07,28,140,,08,02,046,,13,35,272,*76

10:44:32.130$GPGSV,3,3,10,15,16,303,,17,57,220,*7F

10:44:32.130$GLGSV,2,1,07,82,41,196,31,79,69,052,29,88,24,030,23,81,76,077,29*68

10:44:32.130$GLGSV,2,2,07,70,04,289,,80,30,322,,71,03,336,*59

10:44:32.136$GPGSA,A,3,01,11,19,28,30,,,,,,,,1.1,0.8,0.8*32

10:44:32.136$GPVTG,,T,,M,0.0,N,0.0,K,A*23

10:44:32.136$GPRMC,164433,A,4011.566378,N,10505.397199,W,0.0,,230716,7.7,E,A*21

10:44:32.136$GPGGA,164433,4011.566378,N,10505.397199,W,1,05,0.8,1551.0,M,-21.0,M,,*44

10:44:33.110$GPGSV,3,1,10,01,34,078,29,11,33,059,29,19,28,219,24,28,67,357,28*71

10:44:33.110$GPGSV,3,2,10,30,56,143,28,07,28,140,,08,02,046,,13,35,272,*76

10:44:33.110$GPGSV,3,3,10,15,16,303,,17,57,220,*7F

10:44:33.110$GLGSV,2,1,07,82,41,196,31,79,69,052,29,88,24,030,23,81,76,077,29*68

10:44:33.110$GLGSV,2,2,07,70,04,289,,80,30,322,,71,03,336,*59

10:44:33.111$GPGSA,A,3,01,11,19,28,30,,,,,,,,1.1,0.8,0.8*32

10:44:33.111$GPVTG,,T,,M,0.0,N,0.0,K,A*23

10:44:33.112$GPRMC,164434,A,4011.566378,N,10505.397199,W,0.0,,230716,7.7,E,A*26

10:44:33.112$GPGGA,164434,4011.566378,N,10505.397199,W,1,05,0.8,1551.0,M,-21.0,M,,*43

10:44:34.125$GPGSV,3,1,09,01,34,078,27,07,28,140,34,11,33,059,29,13,35,272,28*7F

10:44:34.125$GPGSV,3,2,09,17,57,220,27,19,28,219,30,28,67,357,25,30,56,143,26*74

10:44:34.125$GPGSV,3,3,09,08,02,046,*48

10:44:34.125$GLGSV,2,1,07,82,41,196,28,79,69,052,27,81,76,077,33,78,35,111,*69

10:44:34.127$GLGSV,2,2,07,70,04,289,,80,30,322,,71,03,336,*59

10:44:34.130$GPGSA,A,3,01,07,11,13,17,19,28,30,,,,,1.1,0.8,0.8*31

10:44:34.130$GPVTG,,T,,M,0.0,N,0.0,K,A*23

10:44:34.130$GPRMC,164435,A,4011.566381,N,10505.397185,W,0.0,,230716,7.7,E,A*2C

10:44:34.130$GPGGA,164435,4011.566381,N,10505.397185,W,1,08,0.8,1551.0,M,-21.0,M,,*44

10:44:35.123$GPGSV,3,1,09,01,34,078,27,07,28,140,34,11,33,059,29,13,35,272,28*7F

10:44:35.123$GPGSV,3,2,09,17,57,220,27,19,28,219,30,28,67,357,25,30,56,143,26*74

10:44:35.123$GPGSV,3,3,09,08,02,046,*48

10:44:35.123$GLGSV,2,1,07,82,41,196,28,79,69,052,27,81,76,077,33,78,35,111,*69

10:44:35.123$GLGSV,2,2,07,70,04,289,,80,30,322,,71,03,336,*59

10:44:35.124$GPGSA,A,3,01,07,11,13,17,19,28,30,,,,,1.1,0.8,0.8*31

10:44:35.125$GPVTG,,T,,M,0.0,N,0.0,K,A*23

10:44:35.125$GPRMC,164436,A,4011.566381,N,10505.397185,W,0.0,,230716,7.7,E,A*2F

10:44:35.125$GPGGA,164436,4011.566381,N,10505.397185,W,1,08,0.8,1551.0,M,-21.0,M,,*47

10:44:36.127$GPGSV,3,1,10,01,34,078,24,07,28,140,31,13,35,272,31,17,57,220,36*7F

10:44:36.127$GPGSV,3,2,10,28,67,357,29,30,56,143,36,08,02,046,,11,33,059,*7F

10:44:36.127$GPGSV,3,3,10,15,16,303,,19,28,219,*73

10:44:36.127$GLGSV,2,1,05,82,41,196,28,81,76,077,32,78,35,111,,70,04,289,*69

10:44:36.127$GLGSV,2,2,05,71,03,336,*53

10:44:36.130$GPGSA,A,3,01,07,13,17,28,30,,,,,,,1.1,0.8,0.8*39

10:44:36.131$GPVTG,,T,,M,0.0,N,0.0,K,A*23

10:44:36.131$GPRMC,164437,A,4011.566666,N,10505.397816,W,0.0,,230716,7.7,E,A*21

10:44:36.131$GPGGA,164437,4011.566666,N,10505.397816,W,1,06,0.8,1552.0,M,-21.0,M,,*44

10:44:37.139$GPGSV,3,1,10,01,34,078,24,07,28,140,29,13,35,272,28,17,57,220,29*70

10:44:37.139$GPGSV,3,2,10,28,67,357,33,30,56,143,36,08,02,046,,11,33,059,*74

10:44:37.139$GPGSV,3,3,10,15,16,303,,19,28,219,*73

10:44:37.140$GLGSV,2,1,08,82,41,196,29,81,76,077,33,78,35,111,,70,04,289,*64

10:44:37.140$GLGSV,2,2,08,80,30,322,,79,69,052,,88,24,030,,71,03,336,*65

10:44:37.143$GPGSA,A,3,01,07,13,17,28,30,,,,,,,1.1,0.8,0.8*39

10:44:37.144$GPVTG,,T,,M,0.0,N,0.0,K,A*23

10:44:37.144$GPRMC,164438,A,4011.566469,N,10505.397994,W,0.0,,230716,7.7,E,A*28

10:44:37.144$GPGGA,164438,4011.566469,N,10505.397994,W,1,06,0.8,1552.0,M,-21.0,M,,*4D

10:44:38.128$GPGSV,3,1,10,01,34,078,26,07,28,140,30,13,35,272,28,17,57,220,30*72

10:44:38.128$GPGSV,3,2,10,28,67,357,31,30,56,143,36,08,02,046,,11,33,059,*76

10:44:38.128$GPGSV,3,3,10,15,16,303,,19,28,219,*73

10:44:38.128$GLGSV,2,1,08,82,41,196,28,81,76,077,34,78,35,111,,70,04,289,*62

10:44:38.128$GLGSV,2,2,08,80,30,322,,79,69,052,,88,24,030,,71,03,336,*65

10:44:38.134$GPGSA,A,3,01,07,13,17,28,30,,,,,,,1.1,0.8,0.8*39

10:44:38.134$GPVTG,,T,,M,0.0,N,0.0,K,A*23

10:44:38.135$GPRMC,164439,A,4011.566290,N,10505.398277,W,0.0,,230716,7.7,E,A*20

10:44:38.135$GPGGA,164439,4011.566290,N,10505.398277,W,1,06,0.8,1552.0,M,-21.0,M,,*45

10:44:39.123$GPGSV,3,1,10,01,34,078,25,07,28,140,31,13,35,272,27,17,57,220,26*78

10:44:39.123$GPGSV,3,2,10,28,67,357,31,30,56,143,35,08,02,046,,11,33,059,*75

10:44:39.123$GPGSV,3,3,10,15,16,303,,19,28,219,*73

10:44:39.124$GLGSV,2,1,08,82,41,196,27,81,76,077,33,78,35,111,,70,04,289,*6A

10:44:39.124$GLGSV,2,2,08,80,30,322,,79,69,052,,88,24,030,,71,03,336,*65

10:44:39.129$GPGSA,A,3,01,07,13,17,28,30,,,,,,,1.3,0.9,0.8*3A

10:44:39.129$GPVTG,,T,,M,0.0,N,0.0,K,A*23

10:44:39.129$GPRMC,164440,A,4011.565983,N,10505.398758,W,0.0,,230716,7.7,E,A*2C

10:44:39.129$GPGGA,164440,4011.565983,N,10505.398758,W,1,06,0.9,1551.0,M,-21.0,M,,*4B

10:44:40.108$GPGSV,3,1,10,01,34,078,25,07,28,140,31,13,35,272,27,17,57,220,26*78

10:44:40.108$GPGSV,3,2,10,28,67,357,31,30,56,143,35,08,02,046,,11,33,059,*75

10:44:40.108$GPGSV,3,3,10,15,16,303,,19,28,219,*73

10:44:40.108$GLGSV,2,1,08,82,41,196,27,81,76,077,33,78,35,111,,70,04,289,*6A

10:44:40.108$GLGSV,2,2,08,80,30,322,,79,69,052,,88,24,030,,71,03,336,*65

10:44:40.111$GPGSA,A,3,01,07,13,17,28,30,,,,,,,1.3,1.0,0.9*33

10:44:40.111$GPVTG,,T,,M,0.0,N,0.0,K,A*23

10:44:40.111$GPRMC,164441,A,4011.565983,N,10505.398757,W,0.0,,230716,7.7,E,A*22

10:44:40.111$GPGGA,164441,4011.565983,N,10505.398757,W,1,06,1.0,1551.0,M,-21.0,M,,*4D

10:44:41.126$GPGSV,3,1,10,01,34,078,26,07,28,140,31,13,35,272,24,17,57,220,25*7B

10:44:41.127$GPGSV,3,2,10,28,67,357,32,30,56,143,35,08,02,046,,11,33,059,*76

10:44:41.127$GPGSV,3,3,10,15,16,303,,19,28,219,*73

10:44:41.127$GLGSV,2,1,08,82,41,196,27,79,69,052,21,81,76,077,34,78,35,111,*68

10:44:41.127$GLGSV,2,2,08,70,04,289,,80,30,322,,88,24,030,,71,03,336,*63

10:44:41.132$GPGSA,A,3,01,07,13,17,28,30,,,,,,,1.5,1.2,0.9*37

10:44:41.132$GPVTG,,T,,M,0.0,N,0.0,K,A*23

10:44:41.132$GPRMC,164442,A,4011.565641,N,10505.399526,W,0.0,,230716,7.7,E,A*25

10:44:41.132$GPGGA,164442,4011.565641,N,10505.399526,W,1,06,1.2,1552.0,M,-21.0,M,,*4B

10:44:42.154$GPGSV,3,1,10,01,34,078,26,07,28,140,31,13,35,272,24,17,57,220,26*78

10:44:42.154$GPGSV,3,2,10,28,67,357,31,30,56,143,35,08,02,046,,11,33,059,*75

10:44:42.154$GPGSV,3,3,10,15,16,303,,19,28,219,*73

10:44:42.154$GLGSV,2,1,07,82,41,196,28,81,76,077,33,78,35,111,,70,04,289,*6A

10:44:42.154$GLGSV,2,2,07,80,30,322,,88,24,030,,71,03,336,*5C

10:44:42.158$GPGSA,A,3,01,07,13,17,28,30,,,,,,,1.5,1.2,0.9*37

10:44:42.158$GPVTG,,T,,M,0.0,N,0.0,K,A*23

10:44:42.158$GPRMC,164443,A,4011.565418,N,10505.399779,W,0.0,,230716,7.7,E,A*22

10:44:42.158$GPGGA,164443,4011.565418,N,10505.399779,W,1,06,1.2,1550.0,M,-21.0,M,,*4E

10:44:43.143$GPGSV,3,1,10,01,34,078,25,07,28,140,31,13,35,272,24,17,57,220,26*7B

10:44:43.143$GPGSV,3,2,10,28,67,357,31,30,56,143,35,08,02,046,,11,33,059,*75

10:44:43.143$GPGSV,3,3,10,15,16,303,,19,28,219,*73

10:44:43.143$GLGSV,2,1,08,82,41,196,27,81,76,077,33,78,35,111,,70,04,289,*6A

10:44:43.144$GLGSV,2,2,08,80,30,322,,79,69,052,,88,24,030,,71,03,336,*65

10:44:43.147$GPGSA,A,3,01,07,13,17,28,30,,,,,,,1.5,1.2,0.9*37

10:44:43.147$GPVTG,,T,,M,0.0,N,0.0,K,A*23

10:44:43.147$GPRMC,164444,A,4011.565523,N,10505.400116,W,0.0,,230716,7.7,E,A*24

10:44:43.147$GPGGA,164444,4011.565523,N,10505.400116,W,1,06,1.2,1551.0,M,-21.0,M,,*49

10:44:44.133$GPGSV,3,1,10,01,34,078,24,07,28,140,31,13,35,272,24,17,57,220,25*79

10:44:44.133$GPGSV,3,2,10,28,67,357,31,30,56,143,35,08,02,046,,11,33,059,*75

10:44:44.133$GPGSV,3,3,10,15,16,303,,19,28,219,*73

10:44:44.133$GLGSV,2,1,08,82,41,196,26,81,76,077,34,78,35,111,,70,04,289,*6C

10:44:44.133$GLGSV,2,2,08,80,30,322,,79,69,052,,88,24,030,,71,03,336,*65

10:44:44.137$GPGSA,A,3,01,07,13,17,28,30,,,,,,,1.5,1.2,0.9*37

10:44:44.137$GPVTG,173.5,T,173.5,M,1.3,N,2.4,K,A*27

10:44:44.137$GPRMC,164445,A,4011.564938,N,10505.400215,W,1.3,173.5,230716,7.7,E,A*0E

10:44:44.137$GPGGA,164445,4011.564938,N,10505.400215,W,1,06,1.2,1551.0,M,-21.0,M,,*4F

10:44:45.127$GPGSV,3,1,10,01,34,078,25,07,28,140,31,13,35,272,25,17,57,220,24*78

10:44:45.127$GPGSV,3,2,10,28,67,357,31,30,56,143,35,08,02,046,,11,33,059,*75

10:44:45.127$GPGSV,3,3,10,15,16,303,,19,28,219,*73

10:44:45.127$GLGSV,2,1,08,82,41,196,25,81,76,077,34,78,35,111,,70,04,289,*6F

10:44:45.127$GLGSV,2,2,08,80,30,322,,79,69,052,,88,24,030,,71,03,336,*65

10:44:45.127$GPGSA,A,3,01,07,13,17,28,30,,,,,,,1.5,1.2,0.9*37

10:44:45.127$GPVTG,,T,,M,0.0,N,0.0,K,A*23

10:44:45.127$GPRMC,164446,A,4011.564128,N,10505.400475,W,0.0,,230716,7.7,E,A*28

10:44:45.127$GPGGA,164446,4011.564128,N,10505.400475,W,1,06,1.2,1552.0,M,-21.0,M,,*46

10:44:46.135$GPGSV,3,1,10,01,34,078,25,07,28,140,30,13,35,272,25,17,57,220,27*7A

10:44:46.135$GPGSV,3,2,10,28,67,357,31,30,56,143,35,08,02,046,,11,33,059,*75

10:44:46.135$GPGSV,3,3,10,15,16,303,,19,28,219,*73

10:44:46.135$GLGSV,2,1,08,82,41,196,26,79,69,052,22,81,76,077,34,78,35,111,*6A

10:44:46.135$GLGSV,2,2,08,70,04,289,,80,30,322,,88,24,030,,71,03,336,*63

10:44:46.140$GPGSA,A,3,01,07,13,17,28,30,,,,,,,1.5,1.2,0.9*37

10:44:46.140$GPVTG,,T,,M,0.0,N,0.0,K,A*23

10:44:46.140$GPRMC,164447,A,4011.564112,N,10505.400554,W,0.0,,230716,7.7,E,A*22

10:44:46.140$GPGGA,164447,4011.564112,N,10505.400554,W,1,06,1.2,1551.0,M,-21.0,M,,*4F

10:44:47.136$GPGSV,3,1,10,01,34,078,23,07,28,140,31,13,35,272,30,17,57,220,30*7F

10:44:47.136$GPGSV,3,2,10,28,67,357,30,30,56,143,35,08,02,046,,11,33,059,*74

10:44:47.136$GPGSV,3,3,10,15,16,303,,19,28,219,*73

10:44:47.136$GLGSV,2,1,07,82,41,196,26,81,76,077,32,78,35,111,,70,04,289,*65

10:44:47.136$GLGSV,2,2,07,80,30,322,,88,24,030,,71,03,336,*5C

10:44:47.140$GPGSA,A,3,01,07,13,17,28,30,,,,,,,1.5,1.2,0.9*37

10:44:47.140$GPVTG,,T,,M,0.0,N,0.0,K,A*23

10:44:47.140$GPRMC,164448,A,4011.564360,N,10505.400626,W,0.0,,230716,7.7,E,A*2C

10:44:47.140$GPGGA,164448,4011.564360,N,10505.400626,W,1,06,1.2,1552.0,M,-21.0,M,,*42

10:44:48.109$GPGSV,3,1,10,01,34,078,23,07,28,140,31,13,35,272,30,17,57,220,30*7F

10:44:48.109$GPGSV,3,2,10,28,67,357,30,30,56,143,35,08,02,046,,11,33,059,*74

10:44:48.109$GPGSV,3,3,10,15,16,303,,19,28,219,*73

10:44:48.109$GLGSV,2,1,07,82,41,196,26,81,76,077,32,78,35,111,,70,04,289,*65

10:44:48.109$GLGSV,2,2,07,80,30,322,,88,24,030,,71,03,336,*5C

10:44:48.110$GPGSA,A,3,01,07,13,17,28,30,,,,,,,1.5,1.2,0.9*37

10:44:48.110$GPVTG,,T,,M,0.0,N,0.0,K,A*23

10:44:48.110$GPRMC,164449,A,4011.564359,N,10505.400625,W,0.0,,230716,7.7,E,A*24

10:44:48.110$GPGGA,164449,4011.564359,N,10505.400625,W,1,06,1.2,1552.0,M,-21.0,M,,*4A

10:44:49.125$GPGSV,3,1,10,01,34,078,23,07,28,140,29,13,35,272,26,17,57,220,34*75

10:44:49.126$GPGSV,3,2,10,19,28,219,20,28,67,357,29,30,56,143,34,08,02,046,*7B

10:44:49.126$GPGSV,3,3,10,11,33,059,,15,16,303,*77

10:44:49.126$GLGSV,2,1,08,82,41,196,25,81,76,077,31,78,35,111,,70,04,289,*6A

10:44:49.126$GLGSV,2,2,08,80,30,322,,79,69,052,,88,24,030,,71,03,336,*65

10:44:49.130$GPGSA,A,3,01,07,13,17,19,28,30,,,,,,1.4,1.1,0.9*3D

10:44:49.130$GPVTG,,T,,M,0.0,N,0.0,K,A*23

10:44:49.130$GPRMC,164450,A,4011.564455,N,10505.400161,W,0.0,,230716,7.7,E,A*20

10:44:49.130$GPGGA,164450,4011.564455,N,10505.400161,W,1,07,1.1,1553.0,M,-21.0,M,,*4D

10:44:50.139$GPGSV,3,1,09,01,34,078,24,07,28,140,29,13,35,272,29,17,57,220,33*72

10:44:50.139$GPGSV,3,2,09,28,67,357,29,30,56,143,34,08,02,046,,11,33,059,*75

10:44:50.139$GPGSV,3,3,09,15,16,303,*43

10:44:50.139$GLGSV,2,1,08,82,41,196,26,81,76,077,33,78,35,111,,70,04,289,*6B

10:44:50.139$GLGSV,2,2,08,80,30,322,,79,69,052,,88,24,030,,71,03,336,*65

10:44:50.143$GPGSA,A,3,01,07,13,17,28,30,,,,,,,1.4,1.1,0.9*35

10:44:50.143$GPVTG,,T,,M,0.0,N,0.0,K,A*23

10:44:50.143$GPRMC,164451,A,4011.564293,N,10505.400046,W,0.0,,230716,7.7,E,A*29

10:44:50.143$GPGGA,164451,4011.564293,N,10505.400046,W,1,06,1.1,1553.0,M,-21.0,M,,*45

10:44:51.127$GPGSV,3,1,10,01,34,078,23,07,28,140,28,13,35,272,28,17,57,220,34*7A

10:44:51.128$GPGSV,3,2,10,28,67,357,29,30,56,143,35,08,02,046,,11,33,059,*7C

10:44:51.128$GPGSV,3,3,10,15,16,303,,19,28,219,*73

10:44:51.128$GLGSV,2,1,08,82,41,196,26,81,76,077,33,78,35,111,,70,04,289,*6B

10:44:51.128$GLGSV,2,2,08,80,30,322,,79,69,052,,88,24,030,,71,03,336,*65

10:44:51.132$GPGSA,A,3,01,07,13,17,28,30,,,,,,,1.4,1.1,0.9*35

10:44:51.132$GPVTG,,T,,M,0.0,N,0.0,K,A*23

10:44:51.132$GPRMC,164452,A,4011.564201,N,10505.399633,W,0.0,,230716,7.7,E,A*22

10:44:51.132$GPGGA,164452,4011.564201,N,10505.399633,W,1,06,1.1,1553.0,M,-21.0,M,,*4E

10:44:52.111$GPGSV,3,1,10,01,34,078,23,07,28,140,28,13,35,272,28,17,57,220,34*7A

10:44:52.111$GPGSV,3,2,10,28,67,357,29,30,56,143,35,08,02,046,,11,33,059,*7C

10:44:52.112$GPGSV,3,3,10,15,16,303,,19,28,219,*73

10:44:52.112$GLGSV,2,1,08,82,41,196,26,81,76,077,33,78,35,111,,70,04,289,*6B

10:44:52.112$GLGSV,2,2,08,80,30,322,,79,69,052,,88,24,030,,71,03,336,*65

10:44:52.113$GPGSA,A,3,01,07,13,17,28,30,,,,,,,1.5,1.1,0.9*34

10:44:52.113$GPVTG,,T,,M,0.0,N,0.0,K,A*23

10:44:52.114$GPRMC,164453,A,4011.564201,N,10505.399633,W,0.0,,230716,7.7,E,A*23

10:44:52.114$GPGGA,164453,4011.564201,N,10505.399633,W,1,06,1.1,1553.0,M,-21.0,M,,*4F

10:44:53.128$GPGSV,3,1,10,01,34,078,23,07,28,140,29,13,35,272,28,17,57,220,33*7C

10:44:53.129$GPGSV,3,2,10,19,28,219,25,28,67,357,29,30,56,143,34,08,02,046,*7E

10:44:53.129$GPGSV,3,3,10,11,33,059,,15,16,303,*77

10:44:53.129$GLGSV,2,1,08,82,41,196,24,81,76,077,32,78,35,111,,70,04,289,*68

10:44:53.129$GLGSV,2,2,08,80,30,322,,79,69,052,,88,24,030,,71,03,336,*65

10:44:53.134$GPGSA,A,3,01,07,13,17,19,28,30,,,,,,1.5,1.1,0.9*3C

10:44:53.134$GPVTG,,T,,M,0.0,N,0.0,K,A*23

10:44:53.134$GPRMC,164454,A,4011.564171,N,10505.399569,W,0.0,,230716,7.7,E,A*2C

10:44:53.135$GPGGA,164454,4011.564171,N,10505.399569,W,1,07,1.1,1555.0,M,-21.0,M,,*47

10:44:54.143$GPGSV,3,1,10,01,34,078,23,07,28,140,29,13,35,272,29,17,57,220,33*7D

10:44:54.143$GPGSV,3,2,10,19,28,219,24,28,67,357,28,30,56,143,34,08,02,046,*7E

10:44:54.143$GPGSV,3,3,10,11,33,059,,15,16,303,*77

10:44:54.143$GLGSV,2,1,08,82,41,196,23,81,76,077,32,78,35,111,,70,04,289,*6F

10:44:54.143$GLGSV,2,2,08,80,30,322,,79,69,052,,88,24,030,,71,03,336,*65

10:44:54.147$GPGSA,A,3,01,07,13,17,19,28,30,,,,,,1.5,1.1,0.9*3C

10:44:54.147$GPVTG,,T,,M,0.0,N,0.0,K,A*23

10:44:54.147$GPRMC,164455,A,4011.564096,N,10505.399477,W,0.0,,230716,7.7,E,A*2B

10:44:54.147$GPGGA,164455,4011.564096,N,10505.399477,W,1,07,1.1,1554.0,M,-21.0,M,,*41

10:44:55.131$GPGSV,3,1,10,01,34,078,24,07,28,140,29,13,35,272,29,17,57,220,33*7A

10:44:55.131$GPGSV,3,2,10,19,28,219,24,28,67,357,28,30,56,143,34,08,02,046,*7E

10:44:55.131$GPGSV,3,3,10,11,33,059,,15,16,303,*77

10:44:55.131$GLGSV,2,1,08,82,41,196,21,81,76,077,32,78,35,111,,70,04,289,*6D

10:44:55.131$GLGSV,2,2,08,80,30,322,,79,69,052,,88,24,030,,71,03,336,*65

10:44:55.134$GPGSA,A,3,01,07,13,17,19,28,30,,,,,,1.5,1.1,0.9*3C

10:44:55.135$GPVTG,,T,,M,0.0,N,0.0,K,A*23

10:44:55.135$GPRMC,164456,A,4011.563905,N,10505.399788,W,0.0,,230716,7.7,E,A*2F

10:44:55.135$GPGGA,164456,4011.563905,N,10505.399788,W,1,07,1.1,1555.0,M,-21.0,M,,*44

10:44:56.129$GPGSV,3,1,10,01,34,078,23,07,28,140,27,13,35,272,28,17,57,220,33*72

10:44:56.129$GPGSV,3,2,10,19,28,219,23,28,67,357,29,30,56,143,34,08,02,046,*78

10:44:56.130$GPGSV,3,3,10,11,33,059,,15,16,303,*77

10:44:56.130$GLGSV,2,1,08,82,41,196,21,81,76,077,32,78,35,111,,70,04,289,*6D

10:44:56.130$GLGSV,2,2,08,80,30,322,,79,69,052,,88,24,030,,71,03,336,*65

10:44:56.134$GPGSA,A,3,01,07,13,17,19,28,30,,,,,,1.5,1.1,0.9*3C

10:44:56.134$GPVTG,,T,,M,0.0,N,0.0,K,A*23

10:44:56.134$GPRMC,164457,A,4011.563929,N,10505.399767,W,0.0,,230716,7.7,E,A*21

10:44:56.134$GPGGA,164457,4011.563929,N,10505.399767,W,1,07,1.1,1555.0,M,-21.0,M,,*4A

10:44:57.131$GPGSV,3,1,10,01,34,078,24,07,28,140,28,13,35,272,29,17,57,220,33*7B

10:44:57.131$GPGSV,3,2,10,19,28,219,23,28,67,357,29,30,56,143,34,08,02,046,*78

10:44:57.131$GPGSV,3,3,10,11,33,059,,15,16,303,*77

10:44:57.131$GLGSV,2,1,08,82,41,196,21,81,76,077,32,78,35,111,,70,04,289,*6D

10:44:57.131$GLGSV,2,2,08,80,30,322,,79,69,052,,88,24,030,,71,03,336,*65

10:44:57.136$GPGSA,A,3,01,07,13,17,19,28,30,,,,,,1.5,1.1,0.9*3C

10:44:57.136$GPVTG,,T,,M,0.0,N,0.0,K,A*23

10:44:57.136$GPRMC,164458,A,4011.563990,N,10505.399701,W,0.0,,230716,7.7,E,A*2C

10:44:57.136$GPGGA,164458,4011.563990,N,10505.399701,W,1,07,1.1,1555.0,M,-21.0,M,,*47

10:44:58.133$GPGSV,3,1,09,01,34,078,22,07,28,140,28,13,35,272,29,17,57,220,33*75

10:44:58.133$GPGSV,3,2,09,28,67,357,28,30,56,143,34,08,02,046,,11,33,059,*74

10:44:58.133$GPGSV,3,3,09,15,16,303,*43

10:44:58.133$GLGSV,2,1,08,82,41,196,22,81,76,077,32,78,35,111,,70,04,289,*6E

10:44:58.133$GLGSV,2,2,08,80,30,322,,79,69,052,,88,24,030,,71,03,336,*65

10:44:58.136$GPGSA,A,3,01,07,13,17,28,30,,,,,,,1.5,1.1,0.9*34

10:44:58.136$GPVTG,,T,,M,0.0,N,0.0,K,A*23

10:44:58.136$GPRMC,164459,A,4011.563995,N,10505.399708,W,0.0,,230716,7.7,E,A*21

10:44:58.136$GPGGA,164459,4011.563995,N,10505.399708,W,1,06,1.1,1555.0,M,-21.0,M,,*4B

10:44:59.127$GPGSV,3,1,10,01,34,078,23,07,28,140,29,13,35,272,30,17,57,220,32*74

10:44:59.127$GPGSV,3,2,10,28,67,357,28,30,56,143,34,08,02,046,,11,33,059,*7C

10:44:59.127$GPGSV,3,3,10,15,16,303,,19,28,219,*73

10:44:59.127$GLGSV,2,1,08,82,41,196,21,81,76,077,32,78,35,111,,70,04,289,*6D

10:44:59.128$GLGSV,2,2,08,80,30,322,,79,69,052,,88,24,030,,71,03,336,*65

10:44:59.132$GPGSA,A,3,01,07,13,17,28,30,,,,,,,1.5,1.1,0.9*34

10:44:59.132$GPVTG,,T,,M,0.0,N,0.0,K,A*23

10:44:59.132$GPRMC,164500,A,4011.564002,N,10505.399705,W,0.0,,230716,7.7,E,A*21

10:44:59.132$GPGGA,164500,4011.564002,N,10505.399705,W,1,06,1.1,1555.0,M,-21.0,M,,*4B

10:45:00.126$GPGSV,3,1,10,01,34,078,23,07,28,140,28,13,35,272,29,17,57,220,33*7C

10:45:00.126$GPGSV,3,2,10,19,28,219,21,28,67,357,28,30,56,143,34,08,02,046,*7B

10:45:00.126$GPGSV,3,3,10,11,33,059,,15,16,303,*77

10:45:00.126$GLGSV,2,1,08,82,41,196,22,81,76,077,32,78,35,111,,70,04,289,*6E

10:45:00.126$GLGSV,2,2,08,80,30,322,,79,69,052,,88,24,030,,71,03,336,*65

10:45:00.131$GPGSA,A,3,01,07,13,17,19,28,30,,,,,,1.5,1.1,0.9*3C

10:45:00.131$GPVTG,,T,,M,0.0,N,0.0,K,A*23

10:45:00.131$GPRMC,164501,A,4011.563775,N,10505.399919,W,0.0,,230716,7.7,E,A*23

10:45:00.131$GPGGA,164501,4011.563775,N,10505.399919,W,1,07,1.1,1556.0,M,-21.0,M,,*4B

10:45:01.146$GPGSV,3,1,10,01,34,078,24,07,28,140,28,13,35,272,29,17,57,220,33*7B

10:45:01.146$GPGSV,3,2,10,19,28,219,21,28,67,357,27,30,56,143,34,08,02,046,*74

10:45:01.146$GPGSV,3,3,10,11,33,059,,15,16,303,*77

10:45:01.146$GLGSV,2,1,08,82,41,196,22,81,76,077,31,78,35,111,,70,04,289,*6D

10:45:01.146$GLGSV,2,2,08,80,30,322,,79,69,052,,88,24,030,,71,03,336,*65

10:45:01.149$GPGSA,A,3,01,07,13,17,19,28,30,,,,,,1.5,1.1,0.9*3C

10:45:01.149$GPVTG,,T,,M,0.0,N,0.0,K,A*23

10:45:01.149$GPRMC,164502,A,4011.563723,N,10505.399741,W,0.0,,230716,7.7,E,A*20

10:45:01.149$GPGGA,164502,4011.563723,N,10505.399741,W,1,07,1.1,1555.0,M,-21.0,M,,*4B

10:45:02.145$GPGSV,3,1,10,01,34,078,24,07,28,140,28,13,35,272,29,17,57,220,33*7B

10:45:02.146$GPGSV,3,2,10,19,28,219,22,28,67,357,28,30,56,143,34,08,02,046,*78

10:45:02.146$GPGSV,3,3,10,11,33,059,,15,16,303,*77

10:45:02.146$GLGSV,2,1,08,82,41,196,23,81,76,077,32,78,35,111,,70,04,289,*6F

10:45:02.146$GLGSV,2,2,08,80,30,322,,79,69,052,,88,24,030,,71,03,336,*65

10:45:02.149$GPGSA,A,3,01,07,13,17,19,28,30,,,,,,1.5,1.1,0.9*3C

10:45:02.149$GPVTG,,T,,M,0.0,N,0.0,K,A*23

10:45:02.149$GPRMC,164503,A,4011.563763,N,10505.399470,W,0.0,,230716,7.7,E,A*24

10:45:02.149$GPGGA,164503,4011.563763,N,10505.399470,W,1,07,1.1,1555.0,M,-21.0,M,,*4F

10:45:03.130$GPGSV,3,1,10,01,34,078,23,07,28,140,28,13,35,272,29,17,57,220,33*7C

10:45:03.130$GPGSV,3,2,10,19,28,219,21,28,67,357,28,30,56,143,34,08,02,046,*7B

10:45:03.130$GPGSV,3,3,10,11,33,059,,15,16,303,*77

10:45:03.130$GLGSV,2,1,08,82,41,196,23,81,76,077,32,78,35,111,,70,04,289,*6F

10:45:03.130$GLGSV,2,2,08,80,30,322,,79,69,052,,88,24,030,,71,03,336,*65

10:45:03.135$GPGSA,A,3,01,07,13,17,19,28,30,,,,,,1.5,1.1,0.9*3C

10:45:03.135$GPVTG,,T,,M,0.0,N,0.0,K,A*23

10:45:03.135$GPRMC,164504,A,4011.563767,N,10505.399797,W,0.0,,230716,7.7,E,A*2D

10:45:03.135$GPGGA,164504,4011.563767,N,10505.399797,W,1,07,1.1,1555.0,M,-21.0,M,,*46

10:45:04.131$GPGSV,3,1,10,01,34,078,24,07,28,140,29,13,35,272,29,17,57,220,33*7A

10:45:04.131$GPGSV,3,2,10,19,28,219,20,28,67,357,28,30,56,143,33,08,02,046,*7D

10:45:04.131$GPGSV,3,3,10,11,33,059,,15,16,303,*77

10:45:04.131$GLGSV,2,1,08,82,41,196,22,81,76,077,32,78,35,111,,70,04,289,*6E

10:45:04.131$GLGSV,2,2,08,80,30,322,,79,69,052,,88,24,030,,71,03,336,*65

10:45:04.136$GPGSA,A,3,01,07,13,17,19,28,30,,,,,,1.5,1.1,0.9*3C

10:45:04.136$GPVTG,,T,,M,0.0,N,0.0,K,A*23

10:45:04.136$GPRMC,164505,A,4011.563798,N,10505.400226,W,0.0,,230716,7.7,E,A*24

10:45:04.136$GPGGA,164505,4011.563798,N,10505.400226,W,1,07,1.1,1556.0,M,-21.0,M,,*4C

10:45:05.132$GPGSV,3,1,09,01,34,078,25,07,28,140,30,13,35,272,30,17,57,220,33*73

10:45:05.132$GPGSV,3,2,09,28,67,357,30,30,56,143,34,08,02,046,,11,33,059,*7D

10:45:05.132$GPGSV,3,3,09,15,16,303,*43

10:45:05.132$GLGSV,2,1,08,82,41,196,22,81,76,077,33,78,35,111,,70,04,289,*6F

10:45:05.132$GLGSV,2,2,08,80,30,322,,79,69,052,,88,24,030,,71,03,336,*65

10:45:05.137$GPGSA,A,3,01,07,13,17,28,30,,,,,,,1.5,1.1,0.9*34

10:45:05.137$GPVTG,,T,,M,0.0,N,0.0,K,A*23

10:45:05.137$GPRMC,164506,A,4011.563563,N,10505.400326,W,0.0,,230716,7.7,E,A*20

10:45:05.137$GPGGA,164506,4011.563563,N,10505.400326,W,1,06,1.1,1556.0,M,-21.0,M,,*49

10:45:06.128$GPGSV,3,1,10,01,34,078,24,07,28,140,29,13,35,272,29,17,57,220,34*7D

10:45:06.129$GPGSV,3,2,10,28,67,357,29,30,56,143,35,08,02,046,,11,33,059,*7C

10:45:06.129$GPGSV,3,3,10,15,16,303,,19,28,219,*73

10:45:06.129$GLGSV,2,1,08,82,41,196,29,81,76,077,33,78,35,111,,70,04,289,*64

10:45:06.129$GLGSV,2,2,08,80,30,322,,79,69,052,,88,24,030,,71,03,336,*65

10:45:06.134$GPGSA,A,3,01,07,13,17,28,30,,,,,,,1.5,1.1,0.9*34

10:45:06.134$GPVTG,,T,,M,0.0,N,0.0,K,A*23

10:45:06.134$GPRMC,164507,A,4011.563713,N,10505.400144,W,0.0,,230716,7.7,E,A*22

10:45:06.134$GPGGA,164507,4011.563713,N,10505.400144,W,1,06,1.1,1557.0,M,-21.0,M,,*4A

10:45:07.129$GPGSV,3,1,10,01,34,078,25,07,28,140,28,13,35,272,30,17,57,220,34*75

10:45:07.129$GPGSV,3,2,10,28,67,357,29,30,56,143,35,08,02,046,,11,33,059,*7C

10:45:07.129$GPGSV,3,3,10,15,16,303,,19,28,219,*73

10:45:07.129$GLGSV,2,1,08,82,41,196,29,81,76,077,33,78,35,111,,70,04,289,*64

10:45:07.129$GLGSV,2,2,08,80,30,322,,79,69,052,,88,24,030,,71,03,336,*65

10:45:07.133$GPGSA,A,3,01,07,13,17,28,30,,,,,,,1.5,1.1,0.9*34

10:45:07.134$GPVTG,,T,,M,0.0,N,0.0,K,A*23

10:45:07.134$GPRMC,164508,A,4011.563453,N,10505.400220,W,0.0,,230716,7.7,E,A*2B

10:45:07.134$GPGGA,164508,4011.563453,N,10505.400220,W,1,06,1.1,1557.0,M,-21.0,M,,*43

10:45:08.124$GPGSV,3,1,10,01,34,078,27,07,28,140,27,13,35,272,29,17,57,220,33*77

10:45:08.124$GPGSV,3,2,10,28,67,357,29,30,56,143,35,08,02,046,,11,33,059,*7C

10:45:08.124$GPGSV,3,3,10,15,16,303,,19,28,219,*73

10:45:08.124$GLGSV,2,1,08,82,41,196,27,81,76,077,33,78,35,111,,70,04,289,*6A

10:45:08.124$GLGSV,2,2,08,80,30,322,,79,69,052,,88,24,030,,71,03,336,*65

10:45:08.128$GPGSA,A,3,01,07,13,17,28,30,,,,,,,1.5,1.1,0.9*34

10:45:08.128$GPVTG,,T,,M,0.0,N,0.0,K,A*23

10:45:08.128$GPRMC,164509,A,4011.563190,N,10505.400243,W,0.0,,230716,7.7,E,A*25

10:45:08.128$GPGGA,164509,4011.563190,N,10505.400243,W,1,06,1.1,1557.0,M,-21.0,M,,*4D

10:45:09.125$GPGSV,3,1,10,01,34,078,27,07,28,140,28,13,35,272,29,17,57,220,32*79

10:45:09.125$GPGSV,3,2,10,28,67,357,30,30,56,143,35,08,02,046,,11,33,059,*74

10:45:09.125$GPGSV,3,3,10,15,16,303,,19,28,219,*73

10:45:09.126$GLGSV,2,1,08,82,41,196,26,81,76,077,33,78,35,111,,70,04,289,*6B

10:45:09.126$GLGSV,2,2,08,80,30,322,,79,69,052,,88,24,030,,71,03,336,*65

10:45:09.129$GPGSA,A,3,01,07,13,17,28,30,,,,,,,1.5,1.1,0.9*34

10:45:09.129$GPVTG,,T,,M,0.0,N,0.0,K,A*23

10:45:09.130$GPRMC,164510,A,4011.563015,N,10505.400196,W,0.0,,230716,7.7,E,A*2A

10:45:09.130$GPGGA,164510,4011.563015,N,10505.400196,W,1,06,1.1,1557.0,M,-21.0,M,,*42

10:45:10.124$GPGSV,3,1,10,01,34,078,26,07,28,140,27,13,35,272,29,17,57,220,33*76

10:45:10.124$GPGSV,3,2,10,28,67,357,28,30,56,143,34,08,02,046,,11,33,059,*7C

10:45:10.124$GPGSV,3,3,10,15,16,303,,19,28,219,*73

10:45:10.124$GLGSV,2,1,08,82,41,196,27,81,76,077,33,78,35,111,,70,04,289,*6A

10:45:10.124$GLGSV,2,2,08,80,30,322,,79,69,052,,88,24,030,,71,03,336,*65

10:45:10.128$GPGSA,A,3,01,07,13,17,28,30,,,,,,,1.5,1.2,0.9*37

10:45:10.128$GPVTG,,T,,M,0.0,N,0.0,K,A*23

10:45:10.128$GPRMC,164511,A,4011.562788,N,10505.400205,W,0.0,,230716,7.7,E,A*20

10:45:10.128$GPGGA,164511,4011.562788,N,10505.400205,W,1,06,1.2,1558.0,M,-21.0,M,,*44

10:45:11.124$GPGSV,3,1,10,01,34,078,27,07,28,140,27,13,35,272,30,17,57,220,32*7E

10:45:11.124$GPGSV,3,2,10,28,67,357,28,30,56,143,34,08,02,046,,11,33,059,*7C

10:45:11.124$GPGSV,3,3,10,15,16,303,,19,28,219,*73

10:45:11.124$GLGSV,2,1,08,82,41,196,25,81,76,077,33,78,35,111,,70,04,289,*68

10:45:11.124$GLGSV,2,2,08,80,30,322,,79,69,052,,88,24,030,,71,03,336,*65

10:45:11.127$GPGSA,A,3,01,07,13,17,28,30,,,,,,,1.5,1.2,0.9*37

10:45:11.127$GPVTG,,T,,M,0.0,N,0.0,K,A*23

10:45:11.127$GPRMC,164512,A,4011.562997,N,10505.400128,W,0.0,,230716,7.7,E,A*2F

10:45:11.127$GPGGA,164512,4011.562997,N,10505.400128,W,1,06,1.2,1557.0,M,-21.0,M,,*44

10:45:12.107$GPGSV,3,1,10,01,34,078,27,07,28,140,27,13,35,272,30,17,57,220,32*7E

10:45:12.108$GPGSV,3,2,10,28,67,357,28,30,56,143,34,08,02,046,,11,33,059,*7C

10:45:12.108$GPGSV,3,3,10,15,16,303,,19,28,219,*73

10:45:12.108$GLGSV,2,1,08,82,41,196,25,81,76,077,33,78,35,111,,70,04,289,*68

10:45:12.108$GLGSV,2,2,08,80,30,322,,79,69,052,,88,24,030,,71,03,336,*65

10:45:12.109$GPGSA,A,3,01,07,13,17,28,30,,,,,,,1.5,1.2,0.9*37

10:45:12.109$GPVTG,,T,,M,0.0,N,0.0,K,A*23

10:45:12.109$GPRMC,164513,A,4011.562997,N,10505.400128,W,0.0,,230716,7.7,E,A*2E

10:45:12.109$GPGGA,164513,4011.562997,N,10505.400128,W,1,06,1.2,1557.0,M,-21.0,M,,*45

10:45:13.132$GPGSV,3,1,10,01,34,078,26,07,28,140,27,13,35,272,29,17,57,220,33*76

10:45:13.132$GPGSV,3,2,10,28,67,357,30,30,56,143,34,08,02,046,,11,33,059,*75

10:45:13.132$GPGSV,3,3,10,15,16,303,,19,28,219,*73

10:45:13.132$GLGSV,2,1,08,82,41,196,25,88,24,030,21,81,76,077,33,78,35,111,*6E

10:45:13.132$GLGSV,2,2,08,70,04,289,,80,30,322,,79,69,052,,71,03,336,*60

10:45:13.136$GPGSA,A,3,01,07,13,17,28,30,,,,,,,1.3,1.0,0.9*33

10:45:13.136$GPVTG,,T,,M,0.0,N,0.0,K,A*23

10:45:13.137$GPRMC,164514,A,4011.563261,N,10505.400036,W,0.0,,230716,7.7,E,A*24

10:45:13.137$GPGGA,164514,4011.563261,N,10505.400036,W,1,06,1.0,1556.0,M,-21.0,M,,*4C

10:45:14.144$GPGSV,3,1,10,01,34,078,26,07,28,140,27,13,35,272,29,17,57,220,33*76

10:45:14.144$GPGSV,3,2,10,28,67,357,29,30,56,143,34,08,02,046,,11,33,059,*7D

10:45:14.144$GPGSV,3,3,10,15,16,303,,19,28,219,*73

10:45:14.144$GLGSV,2,1,07,82,41,196,25,81,76,077,32,78,35,111,,70,04,289,*66

10:45:14.144$GLGSV,2,2,07,80,30,322,,79,69,052,,71,03,336,*5F

10:45:14.149$GPGSA,A,3,01,07,13,17,28,30,,,,,,,1.3,1.0,0.9*33

10:45:14.149$GPVTG,,T,,M,0.0,N,0.0,K,A*23

10:45:14.149$GPRMC,164515,A,4011.563240,N,10505.400038,W,0.0,,230716,7.7,E,A*28

10:45:14.149$GPGGA,164515,4011.563240,N,10505.400038,W,1,06,1.0,1556.0,M,-21.0,M,,*40

10:45:15.143$GPGSV,3,1,10,01,34,078,27,07,28,140,26,13,35,272,29,17,57,220,33*76

10:45:15.143$GPGSV,3,2,10,28,67,357,29,30,56,143,34,08,02,046,,11,33,059,*7D

10:45:15.143$GPGSV,3,3,10,15,16,303,,19,28,219,*73

10:45:15.143$GLGSV,2,1,08,82,41,196,24,88,24,030,22,81,76,077,32,78,35,111,*6D

10:45:15.143$GLGSV,2,2,08,70,04,289,,80,30,322,,79,69,052,,71,03,336,*60

10:45:15.146$GPGSA,A,3,01,07,13,17,28,30,,,,,,,1.3,1.0,0.9*33

10:45:15.147$GPVTG,,T,,M,0.0,N,0.0,K,A*23

10:45:15.147$GPRMC,164516,A,4011.563328,N,10505.399996,W,0.0,,230716,7.7,E,A*2E

10:45:15.147$GPGGA,164516,4011.563328,N,10505.399996,W,1,06,1.0,1554.0,M,-21.0,M,,*44

10:45:16.141$GPGSV,3,1,10,01,34,078,27,07,28,140,28,13,35,272,30,17,57,220,33*70

10:45:16.141$GPGSV,3,2,10,28,67,357,29,30,56,143,34,08,02,046,,11,33,059,*7D

10:45:16.141$GPGSV,3,3,10,15,16,303,,19,28,219,*73

10:45:16.141$GLGSV,2,1,07,82,41,196,24,81,76,077,33,78,35,111,,70,04,289,*66

10:45:16.141$GLGSV,2,2,07,80,30,322,,79,69,052,,71,03,336,*5F

10:45:16.143$GPGSA,A,3,01,07,13,17,28,30,,,,,,,1.3,1.0,0.9*33

10:45:16.143$GPVTG,,T,,M,0.0,N,0.0,K,A*23

10:45:16.144$GPRMC,164517,A,4011.563325,N,10505.399992,W,0.0,,230716,7.7,E,A*26

10:45:16.144$GPGGA,164517,4011.563325,N,10505.399992,W,1,06,1.0,1555.0,M,-21.0,M,,*4D

10:45:17.121$GPGSV,3,1,10,01,34,078,25,07,28,140,27,13,35,272,29,17,57,220,33*75

10:45:17.121$GPGSV,3,2,10,28,67,357,30,30,56,143,33,08,02,046,,11,33,059,*72

10:45:17.121$GPGSV,3,3,10,15,16,303,,19,28,219,*73

10:45:17.121$GLGSV,2,1,08,82,41,196,27,81,76,077,31,78,35,111,,70,04,289,*68

10:45:17.121$GLGSV,2,2,08,80,30,322,,79,69,052,,88,24,030,,71,03,336,*65

10:45:17.123$GPGSA,A,3,01,07,13,17,28,30,,,,,,,1.3,1.0,0.9*33

10:45:17.123$GPVTG,175.6,T,175.6,M,1.2,N,2.2,K,A*20

10:45:17.124$GPRMC,164518,A,4011.563105,N,10505.399908,W,1.2,175.6,230716,7.7,E,A*02

10:45:17.124$GPGGA,164518,4011.563105,N,10505.399908,W,1,06,1.0,1555.0,M,-21.0,M,,*41

10:45:18.108$GPGSV,3,1,10,01,34,078,25,07,28,140,27,13,35,272,29,17,57,220,33*75

10:45:18.108$GPGSV,3,2,10,28,67,357,30,30,56,143,33,08,02,046,,11,33,059,*72

10:45:18.108$GPGSV,3,3,10,15,16,303,,19,28,219,*73

10:45:18.108$GLGSV,2,1,08,82,41,196,27,81,76,077,31,78,35,111,,70,04,289,*68

10:45:18.108$GLGSV,2,2,08,80,30,322,,79,69,052,,88,24,030,,71,03,336,*65

10:45:18.111$GPGSA,A,3,01,07,13,17,28,30,,,,,,,1.3,1.0,0.9*33

10:45:18.111$GPVTG,175.3,T,175.3,M,1.2,N,2.2,K,A*20

10:45:18.112$GPRMC,164519,A,4011.562773,N,10505.399870,W,1.2,175.3,230716,7.7,E,A*0E

10:45:18.112$GPGGA,164519,4011.562773,N,10505.399870,W,1,06,1.0,1556.0,M,-21.0,M,,*4B

10:45:19.122$GPGSV,3,1,10,01,34,078,25,07,28,140,26,13,35,272,30,17,57,220,34*7B

10:45:19.122$GPGSV,3,2,10,28,67,357,30,30,56,143,33,08,02,046,,11,33,059,*72

10:45:19.122$GPGSV,3,3,10,15,16,303,,19,28,219,*73

10:45:19.122$GLGSV,2,1,08,82,41,196,27,81,76,077,32,78,35,111,,70,04,289,*6B

10:45:19.122$GLGSV,2,2,08,80,30,322,,79,69,052,,88,24,030,,71,03,336,*65

10:45:19.126$GPGSA,A,3,01,07,13,17,28,30,,,,,,,1.3,1.0,0.9*33

10:45:19.127$GPVTG,,T,,M,0.0,N,0.0,K,A*23

10:45:19.127$GPRMC,164520,A,4011.562729,N,10505.400286,W,0.0,,230716,7.7,E,A*22

10:45:19.127$GPGGA,164520,4011.562729,N,10505.400286,W,1,06,1.0,1558.0,M,-21.0,M,,*44

10:45:20.134$GPGSV,3,1,10,01,34,078,27,07,28,140,27,13,35,272,31,17,57,220,34*79

10:45:20.134$GPGSV,3,2,10,28,67,357,30,30,56,143,33,08,02,046,,11,33,059,*72

10:45:20.134$GPGSV,3,3,10,15,16,303,,19,28,219,*73

10:45:20.134$GLGSV,2,1,08,82,41,196,26,81,76,077,31,78,35,111,,70,04,289,*69

10:45:20.134$GLGSV,2,2,08,80,30,322,,79,69,052,,88,24,030,,71,03,336,*65

10:45:20.138$GPGSA,A,3,01,07,13,17,28,30,,,,,,,1.3,1.0,0.9*33

10:45:20.138$GPVTG,,T,,M,0.0,N,0.0,K,A*23

10:45:20.139$GPRMC,164521,A,4011.562542,N,10505.400248,W,0.0,,230716,7.7,E,A*2E

10:45:20.139$GPGGA,164521,4011.562542,N,10505.400248,W,1,06,1.0,1558.0,M,-21.0,M,,*48

10:45:21.110$GPGSV,3,1,10,01,34,078,27,07,28,140,27,13,35,272,31,17,57,220,34*79

10:45:21.110$GPGSV,3,2,10,28,67,357,30,30,56,143,33,08,02,046,,11,33,059,*72

10:45:21.110$GPGSV,3,3,10,15,16,303,,19,28,219,*73

10:45:21.110$GLGSV,2,1,08,82,41,196,26,81,76,077,31,78,35,111,,70,04,289,*69

10:45:21.110$GLGSV,2,2,08,80,30,322,,79,69,052,,88,24,030,,71,03,336,*65

10:45:21.112$GPGSA,A,3,01,07,13,17,28,30,,,,,,,1.5,1.2,0.9*37

10:45:21.112$GPVTG,,T,,M,0.0,N,0.0,K,A*23

10:45:21.112$GPRMC,164522,A,4011.562542,N,10505.400248,W,0.0,,230716,7.7,E,A*2D

10:45:21.112$GPGGA,164522,4011.562542,N,10505.400248,W,1,06,1.2,1558.0,M,-21.0,M,,*49

10:45:22.125$GPGSV,3,1,10,01,34,078,26,07,28,140,26,13,35,272,30,17,57,220,34*78

10:45:22.125$GPGSV,3,2,10,28,67,357,30,30,56,143,34,08,02,046,,11,33,059,*75

10:45:22.125$GPGSV,3,3,10,15,16,303,,19,28,219,*73

10:45:22.125$GLGSV,2,1,08,82,41,196,26,81,76,077,32,78,35,111,,70,04,289,*6A

10:45:22.125$GLGSV,2,2,08,80,30,322,,79,69,052,,88,24,030,,71,03,336,*65

10:45:22.130$GPGSA,A,3,01,07,13,17,28,30,,,,,,,1.5,1.2,0.9*37

10:45:22.130$GPVTG,,T,,M,0.0,N,0.0,K,A*23

10:45:22.130$GPRMC,164523,A,4011.562206,N,10505.400362,W,0.0,,230716,7.7,E,A*22

10:45:22.130$GPGGA,164523,4011.562206,N,10505.400362,W,1,06,1.2,1559.0,M,-21.0,M,,*47

10:45:23.139$GPGSV,3,1,10,01,34,078,26,07,28,140,25,13,35,272,30,17,57,220,34*7B

10:45:23.139$GPGSV,3,2,10,28,67,357,30,30,56,143,34,08,02,046,,11,33,059,*75

10:45:23.139$GPGSV,3,3,10,15,16,303,,19,28,219,*73

10:45:23.139$GLGSV,2,1,08,82,41,196,26,81,76,077,32,78,35,111,,70,04,289,*6A

10:45:23.139$GLGSV,2,2,08,80,30,322,,79,69,052,,88,24,030,,71,03,336,*65

10:45:23.143$GPGSA,A,3,01,07,13,17,28,30,,,,,,,1.5,1.2,0.9*37

10:45:23.143$GPVTG,,T,,M,0.0,N,0.0,K,A*23

10:45:23.143$GPRMC,164524,A,4011.562208,N,10505.400370,W,0.0,,230716,7.7,E,A*28

10:45:23.143$GPGGA,164524,4011.562208,N,10505.400370,W,1,06,1.2,1559.0,M,-21.0,M,,*4D

10:45:24.127$GPGSV,3,1,10,01,34,078,25,07,28,140,25,13,35,272,30,17,57,220,33*7F

10:45:24.127$GPGSV,3,2,10,28,67,357,30,30,56,143,34,08,02,046,,11,33,059,*75

10:45:24.127$GPGSV,3,3,10,15,16,303,,19,28,219,*73

10:45:24.127$GLGSV,2,1,08,82,41,196,27,81,76,077,32,78,35,111,,70,04,289,*6B

10:45:24.127$GLGSV,2,2,08,80,30,322,,79,69,052,,88,24,030,,71,03,336,*65

10:45:24.131$GPGSA,A,3,01,07,13,17,28,30,,,,,,,1.5,1.2,0.9*37

10:45:24.131$GPVTG,,T,,M,0.0,N,0.0,K,A*23

10:45:24.131$GPRMC,164525,A,4011.561941,N,10505.400460,W,0.0,,230716,7.7,E,A*2A

10:45:24.131$GPGGA,164525,4011.561941,N,10505.400460,W,1,06,1.2,1560.0,M,-21.0,M,,*45

10:45:25.128$GPGSV,3,1,10,01,34,078,26,07,28,140,24,13,35,272,30,17,57,220,34*7A

10:45:25.128$GPGSV,3,2,10,28,67,357,30,30,56,143,35,08,02,046,,11,33,059,*74

10:45:25.129$GPGSV,3,3,10,15,16,303,,19,28,219,*73

10:45:25.129$GLGSV,2,1,08,82,41,196,25,88,24,030,20,81,76,077,32,78,35,111,*6E

10:45:25.129$GLGSV,2,2,08,70,04,289,,80,30,322,,79,69,052,,71,03,336,*60

10:45:25.133$GPGSA,A,3,01,07,13,17,28,30,,,,,,,1.3,1.0,0.9*33

10:45:25.133$GPVTG,,T,,M,0.0,N,0.0,K,A*23

10:45:25.133$GPRMC,164526,A,4011.561898,N,10505.400457,W,0.0,,230716,7.7,E,A*28

10:45:25.133$GPGGA,164526,4011.561898,N,10505.400457,W,1,06,1.0,1559.0,M,-21.0,M,,*4F

10:45:26.123$GPGSV,3,1,10,01,34,078,27,07,28,140,25,13,35,272,30,17,57,220,34*7A

10:45:26.123$GPGSV,3,2,10,28,67,357,30,30,56,143,34,08,02,046,,11,33,059,*75

10:45:26.123$GPGSV,3,3,10,15,16,303,,19,28,219,*73

10:45:26.123$GLGSV,2,1,07,82,41,196,27,81,76,077,32,78,35,111,,70,04,289,*64

10:45:26.123$GLGSV,2,2,07,80,30,322,,79,69,052,,71,03,336,*5F

10:45:26.124$GPGSA,A,3,01,07,13,17,28,30,,,,,,,1.3,1.0,0.9*33

10:45:26.124$GPVTG,197.9,T,197.9,M,1.0,N,1.9,K,A*2A

10:45:26.124$GPRMC,164527,A,4011.561503,N,10505.400856,W,1.0,197.9,230716,7.7,E,A*02

10:45:26.124$GPGGA,164527,4011.561503,N,10505.400856,W,1,06,1.0,1558.0,M,-21.0,M,,*4D

10:45:27.108$GPGSV,3,1,10,01,34,078,27,07,28,140,25,13,35,272,30,17,57,220,34*7A

10:45:27.108$GPGSV,3,2,10,28,67,357,30,30,56,143,34,08,02,046,,11,33,059,*75

10:45:27.108$GPGSV,3,3,10,15,16,303,,19,28,219,*73

10:45:27.108$GLGSV,2,1,07,82,41,196,27,81,76,077,32,78,35,111,,70,04,289,*64

10:45:27.108$GLGSV,2,2,07,80,30,322,,79,69,052,,71,03,336,*5F

10:45:27.110$GPGSA,A,3,01,07,13,17,28,30,,,,,,,1.3,1.0,0.9*33

10:45:27.110$GPVTG,197.9,T,197.9,M,1.0,N,1.9,K,A*2A

10:45:27.110$GPRMC,164528,A,4011.561235,N,10505.400970,W,1.0,197.9,230716,7.7,E,A*0A

10:45:27.111$GPGGA,164528,4011.561235,N,10505.400970,W,1,06,1.0,1558.0,M,-21.0,M,,*45

10:45:28.124$GPGSV,3,1,10,01,34,078,25,07,28,140,26,13,35,272,31,17,57,220,34*7A

10:45:28.124$GPGSV,3,2,10,28,67,357,30,30,56,143,34,08,02,046,,11,33,059,*75

10:45:28.124$GPGSV,3,3,10,15,16,303,,19,28,219,*73

10:45:28.124$GLGSV,2,1,08,82,41,196,27,81,76,077,32,78,35,111,,70,04,289,*6B

10:45:28.124$GLGSV,2,2,08,80,30,322,,79,69,052,,88,24,030,,71,03,336,*65

10:45:28.129$GPGSA,A,3,01,07,13,17,28,30,,,,,,,1.3,1.0,0.9*33

10:45:28.129$GPVTG,,T,,M,0.0,N,0.0,K,A*23

10:45:28.129$GPRMC,164529,A,4011.561111,N,10505.401368,W,0.0,,230716,7.7,E,A*25

10:45:28.129$GPGGA,164529,4011.561111,N,10505.401368,W,1,06,1.0,1559.0,M,-21.0,M,,*42

10:45:29.137$GPGSV,3,1,10,01,34,078,25,07,28,140,24,13,35,272,29,17,57,220,33*76

10:45:29.137$GPGSV,3,2,10,28,67,357,31,30,56,143,34,08,02,046,,11,33,059,*74

10:45:29.137$GPGSV,3,3,10,15,16,303,,19,28,219,*73

10:45:29.137$GLGSV,2,1,08,82,41,196,26,81,76,077,32,78,35,111,,70,04,289,*6A

10:45:29.137$GLGSV,2,2,08,80,30,322,,79,69,052,,88,24,030,,71,03,336,*65

10:45:29.141$GPGSA,A,3,01,07,13,17,28,30,,,,,,,1.3,1.0,0.9*33

10:45:29.141$GPVTG,,T,,M,0.0,N,0.0,K,A*23

10:45:29.141$GPRMC,164530,A,4011.561080,N,10505.401250,W,0.0,,230716,7.7,E,A*2E

10:45:29.141$GPGGA,164530,4011.561080,N,10505.401250,W,1,06,1.0,1559.0,M,-21.0,M,,*49

10:45:30.125$GPGSV,3,1,10,01,34,078,25,07,28,140,26,13,35,272,29,17,57,220,33*74

10:45:30.125$GPGSV,3,2,10,28,67,357,30,30,56,143,33,08,02,046,,11,33,059,*72

10:45:30.125$GPGSV,3,3,10,15,16,303,,19,28,219,*73

10:45:30.125$GLGSV,2,1,08,82,41,196,26,81,76,077,31,78,35,111,,70,04,289,*69

10:45:30.125$GLGSV,2,2,08,80,30,322,,79,69,052,,88,24,030,,71,03,336,*65

10:45:30.130$GPGSA,A,3,01,07,13,17,28,30,,,,,,,1.3,1.0,0.9*33

10:45:30.130$GPVTG,,T,,M,0.0,N,0.0,K,A*23

10:45:30.130$GPRMC,164531,A,4011.560640,N,10505.401037,W,0.0,,230716,7.7,E,A*27

10:45:30.130$GPGGA,164531,4011.560640,N,10505.401037,W,1,06,1.0,1559.0,M,-21.0,M,,*40

10:45:31.127$GPGSV,3,1,10,01,34,078,25,07,28,140,26,11,33,059,20,13,35,272,29*7E

10:45:31.127$GPGSV,3,2,10,17,57,220,33,28,67,357,30,30,56,143,34,08,02,046,*7D

10:45:31.127$GPGSV,3,3,10,15,16,303,,19,28,219,*73

10:45:31.127$GLGSV,2,1,08,82,41,196,26,81,76,077,32,78,35,111,,70,04,289,*6A

10:45:31.127$GLGSV,2,2,08,80,30,322,,79,69,052,,88,24,030,,71,03,336,*65

10:45:31.131$GPGSA,A,3,01,07,11,13,17,28,30,,,,,,1.4,1.1,0.9*35

10:45:31.131$GPVTG,,T,,M,0.0,N,0.0,K,A*23

10:45:31.131$GPRMC,164532,A,4011.560775,N,10505.401185,W,0.0,,230716,7.7,E,A*2B

10:45:31.131$GPGGA,164532,4011.560775,N,10505.401185,W,1,07,1.1,1559.0,M,-21.0,M,,*4C

10:45:32.127$GPGSV,3,1,09,01,34,078,25,07,28,140,24,13,35,272,29,17,57,220,34*79

10:45:32.127$GPGSV,3,2,09,28,67,357,30,30,56,143,34,08,02,046,,15,16,303,*72

10:45:32.127$GPGSV,3,3,09,19,28,219,*48

10:45:32.127$GLGSV,2,1,08,82,41,196,26,81,76,077,32,78,35,111,,70,04,289,*6A

10:45:32.127$GLGSV,2,2,08,80,30,322,,79,69,052,,88,24,030,,71,03,336,*65

10:45:32.132$GPGSA,A,3,01,07,13,17,28,30,,,,,,,1.4,1.1,0.9*35

10:45:32.132$GPVTG,,T,,M,0.0,N,0.0,K,A*23

10:45:32.132$GPRMC,164533,A,4011.560885,N,10505.401234,W,0.0,,230716,7.7,E,A*23

10:45:32.132$GPGGA,164533,4011.560885,N,10505.401234,W,1,06,1.1,1559.0,M,-21.0,M,,*45

10:45:33.139$GPGSV,3,1,10,01,34,078,25,07,28,140,25,13,35,272,29,17,57,220,34*70

10:45:33.139$GPGSV,3,2,10,28,67,357,30,30,56,143,34,08,02,046,,11,33,059,*75

10:45:33.139$GPGSV,3,3,10,15,16,303,,19,28,219,*73

10:45:33.139$GLGSV,2,1,08,82,41,196,27,81,76,077,33,78,35,111,,70,04,289,*6A

10:45:33.139$GLGSV,2,2,08,80,30,322,,79,69,052,,88,24,030,,71,03,336,*65

10:45:33.144$GPGSA,A,3,01,07,13,17,28,30,,,,,,,1.4,1.1,0.9*35

10:45:33.144$GPVTG,305.6,T,305.6,M,1.0,N,1.8,K,A*2B

10:45:33.144$GPRMC,164534,A,4011.560940,N,10505.401778,W,1.0,305.6,230716,7.7,E,A*0E

10:45:33.144$GPGGA,164534,4011.560940,N,10505.401778,W,1,06,1.1,1555.0,M,-21.0,M,,*4B

10:45:34.140$GPGSV,3,1,10,01,34,078,25,07,28,140,23,11,33,059,23,13,35,272,29*78

10:45:34.140$GPGSV,3,2,10,17,57,220,34,28,67,357,29,30,56,143,33,08,02,046,*75

10:45:34.140$GPGSV,3,3,10,15,16,303,,19,28,219,*73

10:45:34.140$GLGSV,2,1,08,82,41,196,27,79,69,052,21,81,76,077,32,78,35,111,*6E

10:45:34.140$GLGSV,2,2,08,70,04,289,,80,30,322,,88,24,030,,71,03,336,*63

10:45:34.145$GPGSA,A,3,01,07,11,13,17,28,30,,,,,,1.4,1.1,0.9*35

10:45:34.145$GPVTG,239.3,T,239.3,M,1.2,N,2.2,K,A*20

10:45:34.145$GPRMC,164535,A,4011.561137,N,10505.402246,W,1.2,239.3,230716,7.7,E,A*04

10:45:34.145$GPGGA,164535,4011.561137,N,10505.402246,W,1,07,1.1,1556.0,M,-21.0,M,,*4A

10:45:35.147$GPGSV,3,1,10,01,34,078,25,07,28,140,25,11,33,059,21,13,35,272,28*7D

10:45:35.147$GPGSV,3,2,10,17,57,220,33,28,67,357,29,30,56,143,33,08,02,046,*72

10:45:35.147$GPGSV,3,3,10,15,16,303,,19,28,219,*73

10:45:35.147$GLGSV,2,1,08,82,41,196,28,79,69,052,22,81,76,077,32,78,35,111,*62

10:45:35.147$GLGSV,2,2,08,70,04,289,,80,30,322,,88,24,030,,71,03,336,*63

10:45:35.151$GPGSA,A,3,01,07,11,13,17,28,30,,,,,,1.4,1.1,0.9*35

10:45:35.152$GPVTG,,T,,M,0.0,N,0.0,K,A*23

10:45:35.152$GPRMC,164536,A,4011.561112,N,10505.402577,W,0.0,,230716,7.7,E,A*23

10:45:35.152$GPGGA,164536,4011.561112,N,10505.402577,W,1,07,1.1,1555.0,M,-21.0,M,,*48

10:45:36.143$GPGSV,3,1,10,01,34,078,23,07,28,140,25,11,33,059,22,13,35,272,28*78

10:45:36.143$GPGSV,3,2,10,17,57,220,33,28,67,357,29,30,56,143,34,08,02,046,*75

10:45:36.143$GPGSV,3,3,10,15,16,303,,19,28,219,*73

10:45:36.143$GLGSV,2,1,08,82,41,196,28,79,69,052,24,81,76,077,32,78,35,111,*64

10:45:36.143$GLGSV,2,2,08,70,04,289,,80,30,322,,88,24,030,,71,03,336,*63

10:45:36.148$GPGSA,A,3,01,07,11,13,17,28,30,,,,,,1.4,1.1,0.9*35

10:45:36.148$GPVTG,,T,,M,0.0,N,0.0,K,A*23

10:45:36.148$GPRMC,164537,A,4011.561257,N,10505.402594,W,0.0,,230716,7.7,E,A*2D

10:45:36.148$GPGGA,164537,4011.561257,N,10505.402594,W,1,07,1.1,1557.0,M,-21.0,M,,*44

10:45:37.129$GPGSV,3,1,10,01,34,078,24,07,28,140,25,11,33,059,22,13,35,272,28*7F

10:45:37.129$GPGSV,3,2,10,17,57,220,33,28,67,357,30,30,56,143,33,08,02,046,*7A

10:45:37.129$GPGSV,3,3,10,15,16,303,,19,28,219,*73

10:45:37.129$GLGSV,2,1,08,82,41,196,27,79,69,052,24,81,76,077,32,78,35,111,*6B

10:45:37.129$GLGSV,2,2,08,70,04,289,,80,30,322,,88,24,030,,71,03,336,*63

10:45:37.134$GPGSA,A,3,01,07,11,13,17,28,30,,,,,,1.4,1.1,0.9*35

10:45:37.134$GPVTG,,T,,M,0.0,N,0.0,K,A*23

10:45:37.134$GPRMC,164538,A,4011.561110,N,10505.402600,W,0.0,,230716,7.7,E,A*2C

10:45:37.134$GPGGA,164538,4011.561110,N,10505.402600,W,1,07,1.1,1558.0,M,-21.0,M,,*4A

10:45:38.133$GPGSV,3,1,10,01,34,078,24,07,28,140,24,11,33,059,22,13,35,272,29*7F

10:45:38.133$GPGSV,3,2,10,17,57,220,34,28,67,357,29,30,56,143,34,08,02,046,*72

10:45:38.133$GPGSV,3,3,10,15,16,303,,19,28,219,*73

10:45:38.133$GLGSV,2,1,08,82,41,196,27,79,69,052,21,81,76,077,32,78,35,111,*6E

10:45:38.133$GLGSV,2,2,08,70,04,289,,80,30,322,,88,24,030,,71,03,336,*63

10:45:38.137$GPGSA,A,3,01,07,11,13,17,28,30,,,,,,1.4,1.1,0.9*35

10:45:38.137$GPVTG,,T,,M,0.0,N,0.0,K,A*23

10:45:38.137$GPRMC,164539,A,4011.561144,N,10505.402551,W,0.0,,230716,7.7,E,A*2B

10:45:38.137$GPGGA,164539,4011.561144,N,10505.402551,W,1,07,1.1,1558.0,M,-21.0,M,,*4D

10:45:39.129$GPGSV,3,1,10,01,34,078,21,07,28,140,26,11,33,059,22,13,35,272,28*79

10:45:39.129$GPGSV,3,2,10,17,57,220,32,28,67,357,30,30,56,143,33,08,02,046,*7B

10:45:39.129$GPGSV,3,3,10,15,16,303,,19,28,219,*73

10:45:39.129$GLGSV,2,1,08,82,41,196,24,79,69,052,21,81,76,077,35,78,35,111,*6A

10:45:39.129$GLGSV,2,2,08,70,04,289,,80,30,322,,88,24,030,,71,03,336,*63

10:45:39.134$GPGSA,A,3,01,07,11,13,17,28,30,,,,,,1.4,1.1,0.9*35

10:45:39.134$GPVTG,,T,,M,0.0,N,0.0,K,A*23

10:45:39.134$GPRMC,164540,A,4011.561043,N,10505.402327,W,0.0,,230716,7.7,E,A*24

10:45:39.134$GPGGA,164540,4011.561043,N,10505.402327,W,1,07,1.1,1558.0,M,-21.0,M,,*42

10:45:40.127$GPGSV,3,1,10,01,34,078,27,07,28,140,27,11,33,059,26,13,35,272,30*73

10:45:40.127$GPGSV,3,2,10,17,57,220,37,28,67,357,27,30,56,143,35,08,02,046,*7E

10:45:40.127$GPGSV,3,3,10,15,16,303,,19,28,219,*73

10:45:40.127$GLGSV,2,1,08,82,41,196,24,80,30,322,20,79,69,052,24,88,24,030,23*67

10:45:40.127$GLGSV,2,2,08,81,76,077,33,78,35,111,,70,04,289,,71,03,336,*6E

10:45:40.131$GPGSA,A,3,01,07,11,13,17,28,30,,,,,,1.3,1.0,0.9*33

10:45:40.131$GPVTG,,T,,M,0.0,N,0.0,K,A*23

10:45:40.131$GPRMC,164541,A,4011.561145,N,10505.402066,W,0.0,,230716,7.7,E,A*24

10:45:40.131$GPGGA,164541,4011.561145,N,10505.402066,W,1,07,1.0,1558.0,M,-21.0,M,,*43

10:45:41.124$GPGSV,3,1,10,01,34,078,25,07,28,140,28,11,33,059,25,13,35,272,27*7B

10:45:41.124$GPGSV,3,2,10,17,57,220,34,19,28,219,28,28,67,357,25,30,56,143,25*74

10:45:41.124$GPGSV,3,3,10,08,02,046,,15,16,303,*73

10:45:41.124$GLGSV,2,1,06,82,41,196,34,79,69,052,26,81,76,077,28,78,35,111,*6E

10:45:41.124$GLGSV,2,2,06,70,04,289,,71,03,336,*60

10:45:41.129$GPGSA,A,3,01,07,11,13,17,19,28,30,,,,,1.3,0.9,0.8*32

10:45:41.130$GPVTG,,T,,M,0.0,N,0.0,K,A*23

