11:48:53.779$GPGSA,A,1,,,,,,,,,,,,,,,*1E

11:48:53.779$GPVTG,,T,,M,,N,,K,N*2C

11:48:53.779$GPRMC,,V,,,,,,,,,,N*53

11:48:53.779$GPGGA,,,,,,0,,,,,,,,*66

11:48:54.100$GPGSA,A,1,,,,,,,,,,,,,,,*1E

11:48:54.100$GPVTG,,T,,M,,N,,K,N*2C

11:48:54.100$GPRMC,,V,,,,,,,,,,N*53

11:48:54.100$GPGGA,,,,,,0,,,,,,,,*66

11:48:55.088$GPGSV,4,1,13,28,58,064,35,01,25,047,,03,01,092,,06,23,178,*78

11:48:55.088$GPGSV,4,2,13,07,01,150,,11,11,045,,13,20,241,,15,13,275,*7F

11:48:55.088$GPGSV,4,3,13,17,80,309,,19,56,244,,22,02,070,,24,18,314,*7D

11:48:55.088$GPGSV,4,4,13,30,26,154,*4C

11:48:55.088$GLGSV,2,1,08,80,63,333,27,79,51,129,28,78,09,137,,73,08,322,*63

11:48:55.088$GLGSV,2,2,08,82,77,236,,83,20,217,,81,45,032,,72,00,000,*61

11:48:55.088$GPGSA,A,1,,,,,,,,,,,,,,,*1E

11:48:55.088$GPVTG,,T,,M,,N,,K,N*2C

11:48:55.088$GPRMC,,V,,,,,,,,,,N*53

11:48:55.088$GPGGA,,,,,,0,,,,,,,,*66

11:48:55.993$GPGSV,4,1,13,01,25,047,32,06,23,178,21,11,11,045,27,13,20,241,21*70

11:48:55.993$GPGSV,4,2,13,17,80,309,26,28,58,064,33,30,26,154,25,03,01,092,*71

11:48:55.993$GPGSV,4,3,13,07,01,150,,15,13,275,,19,56,244,,22,02,070,*74

11:48:55.993$GPGSV,4,4,13,24,18,314,*42

11:48:55.993$GLGSV,2,1,08,82,77,236,21,80,63,333,21,79,51,129,31,81,45,032,30*65

11:48:55.993$GLGSV,2,2,08,78,09,137,,73,08,322,,83,20,217,,72,00,000,*69

11:48:55.994$GPGSA,A,3,01,06,11,17,28,30,,,,,,,1.3,1.0,0.8*31

11:48:55.994$GPVTG,55.7,T,55.7,M,1.0,N,1.9,K,A*2A

11:48:55.994$GPRMC,174856,A,4011.575989,N,10505.359057,W,1.0,55.7,230716,7.7,E,A*30

11:48:55.994$GPGGA,174856,4011.575989,N,10505.359057,W,1,06,1.0,1542.0,M,-21.0,M,,*45

11:48:56.085$GPGSV,4,1,13,01,25,047,32,06,23,178,21,11,11,045,27,13,20,241,21*70

11:48:56.085$GPGSV,4,2,13,17,80,309,26,28,58,064,33,30,26,154,25,03,01,092,*71

11:48:56.085$GPGSV,4,3,13,07,01,150,,15,13,275,,19,56,244,,22,02,070,*74

11:48:56.085$GPGSV,4,4,13,24,18,314,*42

11:48:56.085$GLGSV,2,1,08,82,77,236,21,80,63,333,21,79,51,129,31,81,45,032,30*65

11:48:56.086$GLGSV,2,2,08,78,09,137,,73,08,322,,83,20,217,,72,00,000,*69

11:48:56.086$GPGSA,A,3,01,06,11,17,28,30,,,,,,,1.3,1.0,0.8*31

11:48:56.086$GPVTG,55.7,T,55.7,M,1.0,N,1.9,K,A*2A

11:48:56.086$GPRMC,174857,A,4011.575988,N,10505.358840,W,1.0,55.7,230716,7.7,E,A*3F

11:48:56.086$GPGGA,174857,4011.575988,N,10505.358840,W,1,06,1.0,1542.0,M,-21.0,M,,*4A

11:48:57.100$GPGSV,4,1,13,01,25,047,33,06,23,178,21,11,11,045,29,13,20,241,20*7E

11:48:57.100$GPGSV,4,2,13,15,13,275,30,17,80,309,24,24,18,314,20,28,58,064,32*75

11:48:57.100$GPGSV,4,3,13,30,26,154,23,03,01,092,,07,01,150,,19,56,244,*78

11:48:57.100$GPGSV,4,4,13,22,02,070,*4E

11:48:57.100$GLGSV,2,1,08,78,09,137,24,73,08,322,23,82,77,236,24,80,63,333,22*60

11:48:57.100$GLGSV,2,2,08,79,51,129,25,81,45,032,30,83,20,217,,72,00,000,*68

11:48:57.101$GPGSA,A,3,01,06,11,13,15,17,24,28,30,,,,1.0,0.7,0.7*3B

11:48:57.101$GPVTG,,T,,M,0.0,N,0.0,K,A*23

11:48:57.101$GPRMC,174858,A,4011.576349,N,10505.363116,W,0.0,,230716,7.7,E,A*2E

11:48:57.101$GPGGA,174858,4011.576349,N,10505.363116,W,1,09,0.7,1542.0,M,-21.0,M,,*4A

11:48:58.108$GPGSV,4,1,13,01,25,047,33,03,01,092,18,06,23,178,21,11,11,045,28*7A

11:48:58.108$GPGSV,4,2,13,13,20,241,23,15,13,275,29,17,80,309,24,19,56,244,19*75

11:48:58.108$GPGSV,4,3,13,22,02,070,17,24,18,314,18,28,58,064,33,30,26,154,23*7C

11:48:58.108$GPGSV,4,4,13,07,01,150,*49

11:48:58.108$GLGSV,2,1,08,78,09,137,25,73,08,322,21,82,77,236,24,80,63,333,24*65

11:48:58.108$GLGSV,2,2,08,79,51,129,22,81,45,032,29,83,20,217,,72,00,000,*67

11:48:58.108$GPGSA,A,3,01,03,06,11,13,15,17,19,22,24,28,30,1.0,0.7,0.7*30

11:48:58.109$GPVTG,,T,,M,0.0,N,0.0,K,A*23

11:48:58.109$GPRMC,174859,A,4011.576506,N,10505.366678,W,0.0,,230716,7.7,E,A*28

11:48:58.109$GPGGA,174859,4011.576506,N,10505.366678,W,1,12,0.7,1541.0,M,-21.0,M,,*45

11:48:59.109$GPGSV,4,1,13,01,25,047,33,03,01,092,18,06,23,178,26,11,11,045,30*74

11:48:59.109$GPGSV,4,2,13,13,20,241,22,15,13,275,30,17,80,309,24,19,56,244,20*76

11:48:59.109$GPGSV,4,3,13,22,02,070,16,24,18,314,18,28,58,064,32,30,26,154,27*78

11:48:59.109$GPGSV,4,4,13,07,01,150,*49

11:48:59.109$GLGSV,2,1,08,78,09,137,26,73,08,322,21,82,77,236,24,80,63,333,23*61

11:48:59.109$GLGSV,2,2,08,79,51,129,29,81,45,032,29,83,20,217,,72,00,000,*6C

11:48:59.110$GPGSA,A,3,01,03,06,11,13,15,17,19,22,24,28,30,1.0,0.7,0.7*30

11:48:59.110$GPVTG,,T,,M,0.0,N,0.0,K,A*23

11:48:59.110$GPRMC,174900,A,4011.576350,N,10505.365880,W,0.0,,230716,7.7,E,A*2A

11:48:59.110$GPGGA,174900,4011.576350,N,10505.365880,W,1,12,0.7,1541.0,M,-21.0,M,,*47

11:49:00.108$GPGSV,4,1,13,01,25,047,32,03,01,092,19,06,23,178,27,11,11,045,35*70

11:49:00.108$GPGSV,4,2,13,13,20,241,20,15,13,275,23,17,80,309,29,19,56,244,28*73

11:49:00.108$GPGSV,4,3,13,22,02,070,18,24,18,314,19,28,58,064,34,30,26,154,28*7E

11:49:00.108$GPGSV,4,4,13,07,01,150,*49

11:49:00.108$GLGSV,2,1,08,78,09,137,19,73,08,322,17,82,77,236,26,80,63,333,27*6E

11:49:00.108$GLGSV,2,2,08,79,51,129,32,83,20,217,16,81,45,032,34,72,00,000,*6D

11:49:00.109$GPGSA,A,3,01,03,06,11,13,15,17,19,22,24,28,30,1.0,0.7,0.7*30

11:49:00.109$GPVTG,44.0,T,44.0,M,2.1,N,3.9,K,A*2A

11:49:00.109$GPRMC,174901,A,4011.577168,N,10505.365249,W,2.1,44.0,230716,7.7,E,A*31

11:49:00.109$GPGGA,174901,4011.577168,N,10505.365249,W,1,12,0.7,1541.0,M,-21.0,M,,*41

11:49:01.114$GPGSV,4,1,13,01,25,047,31,03,01,092,18,06,23,178,26,11,11,045,33*75

11:49:01.114$GPGSV,4,2,13,13,20,241,19,15,13,275,20,17,80,309,31,19,56,244,25*7E

11:49:01.114$GPGSV,4,3,13,22,02,070,18,24,18,314,19,28,58,064,34,30,26,154,24*72

11:49:01.114$GPGSV,4,4,13,07,01,150,*49

11:49:01.114$GLGSV,2,1,08,78,09,137,23,73,08,322,18,82,77,236,28,80,63,333,27*66

11:49:01.114$GLGSV,2,2,08,79,51,129,31,83,20,217,18,81,45,032,34,72,00,000,*60

11:49:01.116$GPGSA,A,3,01,03,06,11,13,15,17,19,22,24,28,30,1.0,0.7,0.7*30

11:49:01.116$GPVTG,31.4,T,31.4,M,3.2,N,5.9,K,A*2E

11:49:01.116$GPRMC,174902,A,4011.579054,N,10505.365921,W,3.2,31.4,230716,7.7,E,A*33

11:49:01.116$GPGGA,174902,4011.579054,N,10505.365921,W,1,12,0.7,1544.0,M,-21.0,M,,*42

11:49:02.112$GPGSV,4,1,13,01,25,047,34,03,01,092,19,06,23,178,21,11,11,045,32*77

11:49:02.112$GPGSV,4,2,13,13,20,241,21,15,13,275,18,17,80,309,34,19,56,244,28*76

11:49:02.112$GPGSV,4,3,13,22,02,070,21,24,18,314,17,28,58,064,34,30,26,154,24*76

11:49:02.112$GPGSV,4,4,13,07,01,150,*49

11:49:02.112$GLGSV,2,1,08,78,09,137,21,73,08,322,18,82,77,236,28,80,63,333,29*6A

11:49:02.112$GLGSV,2,2,08,79,51,129,28,83,20,217,18,81,45,032,34,72,00,000,*68

11:49:02.112$GPGSA,A,3,01,03,06,11,13,15,17,19,22,24,28,30,1.0,0.7,0.7*30

11:49:02.112$GPVTG,40.0,T,40.0,M,2.7,N,5.1,K,A*22

11:49:02.112$GPRMC,174903,A,4011.580587,N,10505.367244,W,2.7,40.0,230716,7.7,E,A*33

11:49:02.113$GPGGA,174903,4011.580587,N,10505.367244,W,1,12,0.7,1544.0,M,-21.0,M,,*44

11:49:03.106$GPGSV,4,1,13,01,25,047,34,03,01,092,22,06,23,178,22,11,11,045,33*7D

11:49:03.106$GPGSV,4,2,13,13,20,241,21,15,13,275,19,17,80,309,33,19,56,244,28*70

11:49:03.106$GPGSV,4,3,13,22,02,070,20,24,18,314,18,28,58,064,35,30,26,154,26*7B

11:49:03.107$GPGSV,4,4,13,07,01,150,*49

11:49:03.107$GLGSV,2,1,08,78,09,137,21,73,08,322,22,82,77,236,27,80,63,333,28*6D

11:49:03.107$GLGSV,2,2,08,79,51,129,28,83,20,217,18,81,45,032,34,72,00,000,*68

11:49:03.108$GPGSA,A,3,01,03,06,11,13,15,17,19,22,24,28,30,1.0,0.7,0.7*30

11:49:03.108$GPVTG,40.3,T,40.3,M,2.6,N,4.9,K,A*2A

11:49:03.109$GPRMC,174904,A,4011.581087,N,10505.366165,W,2.6,40.3,230716,7.7,E,A*33

11:49:03.109$GPGGA,174904,4011.581087,N,10505.366165,W,1,12,0.7,1546.0,M,-21.0,M,,*44

11:49:04.109$GPGSV,4,1,13,01,25,047,33,03,01,092,21,06,23,178,23,11,11,045,34*7F

11:49:04.109$GPGSV,4,2,13,13,20,241,20,15,13,275,20,17,80,309,33,19,56,244,28*7B

11:49:04.109$GPGSV,4,3,13,22,02,070,17,24,18,314,23,28,58,064,35,30,26,154,27*76

11:49:04.109$GPGSV,4,4,13,07,01,150,*49

11:49:04.109$GLGSV,2,1,08,78,09,137,21,73,08,322,21,82,77,236,26,80,63,333,28*6F

11:49:04.109$GLGSV,2,2,08,79,51,129,29,83,20,217,18,81,45,032,33,72,00,000,*6E

11:49:04.111$GPGSA,A,3,01,03,06,11,13,15,17,19,22,24,28,30,1.0,0.7,0.7*30

11:49:04.111$GPVTG,40.0,T,40.0,M,2.7,N,5.1,K,A*22

11:49:04.111$GPRMC,174905,A,4011.581979,N,10505.366131,W,2.7,40.0,230716,7.7,E,A*39

11:49:04.111$GPGGA,174905,4011.581979,N,10505.366131,W,1,12,0.7,1547.0,M,-21.0,M,,*4D

11:49:05.110$GPGSV,4,1,13,01,25,047,34,03,01,092,21,06,23,178,23,11,11,045,34*78

11:49:05.110$GPGSV,4,2,13,13,20,241,20,15,13,275,28,17,80,309,34,19,56,244,29*75

11:49:05.110$GPGSV,4,3,13,22,02,070,17,24,18,314,23,28,58,064,35,30,26,154,27*76

11:49:05.110$GPGSV,4,4,13,07,01,150,*49

11:49:05.110$GLGSV,2,1,08,78,09,137,19,73,08,322,21,82,77,236,28,80,63,333,28*6A

11:49:05.110$GLGSV,2,2,08,79,51,129,26,83,20,217,18,81,45,032,33,72,00,000,*61

11:49:05.111$GPGSA,A,3,01,03,06,11,13,15,17,19,22,24,28,30,1.0,0.7,0.7*30

11:49:05.111$GPVTG,37.0,T,37.0,M,2.6,N,4.9,K,A*2A

11:49:05.111$GPRMC,174906,A,4011.582716,N,10505.365848,W,2.6,37.0,230716,7.7,E,A*3B

11:49:05.111$GPGGA,174906,4011.582716,N,10505.365848,W,1,12,0.7,1548.0,M,-21.0,M,,*41

11:49:06.109$GPGSV,4,1,13,01,25,047,35,03,01,092,21,06,23,178,24,11,11,045,35*7F

11:49:06.109$GPGSV,4,2,13,13,20,241,19,15,13,275,29,17,80,309,34,19,56,244,29*7E

11:49:06.109$GPGSV,4,3,13,22,02,070,21,24,18,314,21,28,58,064,34,30,26,154,29*7E

11:49:06.109$GPGSV,4,4,13,07,01,150,*49

11:49:06.109$GLGSV,2,1,08,78,09,137,21,73,08,322,21,82,77,236,29,80,63,333,29*61

11:49:06.109$GLGSV,2,2,08,79,51,129,27,83,20,217,18,81,45,032,34,72,00,000,*67

11:49:06.111$GPGSA,A,3,01,03,06,11,13,15,17,19,22,24,28,30,1.0,0.7,0.7*30

11:49:06.111$GPVTG,37.4,T,37.4,M,2.6,N,4.8,K,A*2B

11:49:06.111$GPRMC,174907,A,4011.582692,N,10505.364853,W,2.6,37.4,230716,7.7,E,A*38

11:49:06.111$GPGGA,174907,4011.582692,N,10505.364853,W,1,12,0.7,1549.0,M,-21.0,M,,*47

11:49:07.107$GPGSV,4,1,13,01,25,047,34,03,01,092,17,06,23,178,23,11,11,045,37*7E

11:49:07.107$GPGSV,4,2,13,13,20,241,17,15,13,275,29,17,80,309,33,19,56,244,29*77

11:49:07.107$GPGSV,4,3,13,22,02,070,21,24,18,314,19,28,58,064,34,30,26,154,24*78

11:49:07.107$GPGSV,4,4,13,07,01,150,*49

11:49:07.107$GLGSV,2,1,08,78,09,137,20,73,08,322,14,82,77,236,27,80,63,333,30*60

11:49:07.107$GLGSV,2,2,08,79,51,129,28,83,20,217,17,81,45,032,34,72,00,000,*67

11:49:07.108$GPGSA,A,3,01,03,06,11,13,15,17,19,22,24,28,30,1.0,0.7,0.7*30

11:49:07.109$GPVTG,37.4,T,37.4,M,2.8,N,5.2,K,A*2E

11:49:07.109$GPRMC,174908,A,4011.583344,N,10505.364431,W,2.8,37.4,230716,7.7,E,A*3E

11:49:07.109$GPGGA,174908,4011.583344,N,10505.364431,W,1,12,0.7,1549.0,M,-21.0,M,,*4F

11:49:08.102$GPGSV,4,1,13,01,25,047,33,03,01,092,20,06,23,178,25,11,11,045,36*7A

11:49:08.102$GPGSV,4,2,13,13,20,241,19,15,13,275,26,17,80,309,28,19,56,244,26*73

11:49:08.102$GPGSV,4,3,13,22,02,070,16,24,18,314,20,28,58,064,35,30,26,154,31*73

11:49:08.102$GPGSV,4,4,13,07,01,150,*49

11:49:08.102$GLGSV,2,1,08,78,09,137,20,73,08,322,14,82,77,236,26,80,63,333,29*69

11:49:08.102$GLGSV,2,2,08,79,51,129,31,83,20,217,18,81,45,032,33,72,00,000,*67

11:49:08.103$GPGSA,A,3,01,03,06,11,13,15,17,19,22,24,28,30,1.0,0.7,0.7*30

11:49:08.103$GPVTG,37.4,T,37.4,M,2.7,N,5.0,K,A*23

11:49:08.103$GPRMC,174909,A,4011.584047,N,10505.363834,W,2.7,37.4,230716,7.7,E,A*39

11:49:08.103$GPGGA,174909,4011.584047,N,10505.363834,W,1,12,0.7,1549.0,M,-21.0,M,,*47

11:49:09.110$GPGSV,4,1,13,01,25,047,33,03,01,092,19,06,23,178,29,11,11,045,34*7E

11:49:09.110$GPGSV,4,2,13,13,20,241,19,15,13,275,17,17,80,309,28,19,56,244,26*71

11:49:09.110$GPGSV,4,3,13,22,02,070,19,24,18,314,20,28,58,064,34,30,26,154,25*78

11:49:09.110$GPGSV,4,4,13,07,01,150,*49

11:49:09.110$GLGSV,2,1,08,78,09,137,15,73,08,322,15,82,77,236,26,80,63,333,28*6F

11:49:09.110$GLGSV,2,2,08,79,51,129,31,83,20,217,20,81,45,032,33,72,00,000,*6C

11:49:09.110$GPGSA,A,3,01,03,06,11,13,15,17,19,22,24,28,30,1.0,0.7,0.7*30

11:49:09.111$GPVTG,37.4,T,37.4,M,2.6,N,4.8,K,A*2B

11:49:09.111$GPRMC,174910,A,4011.584902,N,10505.363238,W,2.6,37.4,230716,7.7,E,A*3E

11:49:09.111$GPGGA,174910,4011.584902,N,10505.363238,W,1,12,0.7,1550.0,M,-21.0,M,,*49

11:49:10.113$GPGSV,4,1,13,01,25,047,33,03,01,092,17,06,23,178,28,11,11,045,33*76

11:49:10.113$GPGSV,4,2,13,13,20,241,18,15,13,275,20,17,80,309,29,19,56,244,27*74

11:49:10.113$GPGSV,4,3,13,22,02,070,20,24,18,314,25,28,58,064,35,30,26,154,28*7B

11:49:10.113$GPGSV,4,4,13,07,01,150,*49

11:49:10.113$GLGSV,2,1,08,78,09,137,15,73,08,322,18,82,77,236,27,80,63,333,28*63

11:49:10.113$GLGSV,2,2,08,79,51,129,29,83,20,217,18,81,45,032,32,72,00,000,*6F

11:49:10.114$GPGSA,A,3,01,03,06,11,13,15,17,19,22,24,28,30,1.0,0.7,0.7*30

11:49:10.114$GPVTG,46.9,T,46.9,M,2.7,N,4.9,K,A*2B

11:49:10.114$GPRMC,174911,A,4011.585468,N,10505.362582,W,2.7,46.9,230716,7.7,E,A*32

11:49:10.114$GPGGA,174911,4011.585468,N,10505.362582,W,1,12,0.7,1550.0,M,-21.0,M,,*4F

11:49:11.125$GPGSV,4,1,13,01,25,047,32,03,01,092,17,06,23,178,29,11,11,045,33*76

11:49:11.125$GPGSV,4,2,13,13,20,241,18,15,13,275,20,17,80,309,29,19,56,244,30*72

11:49:11.125$GPGSV,4,3,13,22,02,070,20,24,18,314,26,28,58,064,36,30,26,154,29*7A

11:49:11.125$GPGSV,4,4,13,07,01,150,*49

11:49:11.125$GLGSV,2,1,08,78,09,137,15,73,08,322,18,82,77,236,30,80,63,333,29*64

11:49:11.125$GLGSV,2,2,08,79,51,129,34,83,20,217,18,81,45,032,33,72,00,000,*62

11:49:11.128$GPGSA,A,3,01,03,06,11,13,15,17,19,22,24,28,30,1.0,0.7,0.7*30

11:49:11.129$GPVTG,47.1,T,47.1,M,2.6,N,4.9,K,A*2A

11:49:11.129$GPRMC,174912,A,4011.586134,N,10505.362262,W,2.6,47.1,230716,7.7,E,A*3F

11:49:11.129$GPGGA,174912,4011.586134,N,10505.362262,W,1,12,0.7,1551.0,M,-21.0,M,,*4B

11:49:12.123$GPGSV,3,1,12,01,25,047,32,06,23,178,29,11,11,045,34,17,80,309,30*7F

11:49:12.123$GPGSV,3,2,12,19,56,244,27,28,58,064,34,30,26,154,28,03,01,092,*71

11:49:12.123$GPGSV,3,3,12,07,01,150,,13,20,241,,15,13,275,,22,02,070,*7C

11:49:12.123$GLGSV,2,1,08,82,77,236,28,80,63,333,28,79,51,129,30,81,45,032,36*62

11:49:12.124$GLGSV,2,2,08,78,09,137,,73,08,322,,83,20,217,,72,00,000,*69

11:49:12.124$GPGSA,A,3,01,06,11,17,19,28,30,,,,,,1.0,0.7,0.7*33

11:49:12.124$GPVTG,47.0,T,47.0,M,2.8,N,5.1,K,A*2D

11:49:12.124$GPRMC,174913,A,4011.586866,N,10505.362057,W,2.8,47.0,230716,7.7,E,A*3B

11:49:12.124$GPGGA,174913,4011.586866,N,10505.362057,W,1,07,0.7,1551.0,M,-21.0,M,,*44

11:49:13.119$GPGSV,4,1,13,01,25,047,32,06,23,178,26,11,11,045,32,17,80,309,32*72

11:49:13.119$GPGSV,4,2,13,19,56,244,28,28,58,064,34,30,26,154,27,03,01,092,*77

11:49:13.119$GPGSV,4,3,13,07,01,150,,13,20,241,,15,13,275,,22,02,070,*7A

11:49:13.119$GPGSV,4,4,13,24,18,314,*42

11:49:13.119$GLGSV,2,1,08,82,77,236,27,80,63,333,27,79,51,129,32,81,45,032,36*60

11:49:13.119$GLGSV,2,2,08,78,09,137,,73,08,322,,83,20,217,,72,00,000,*69

11:49:13.124$GPGSA,A,3,01,06,11,17,19,28,30,,,,,,1.0,0.7,0.7*33

11:49:13.124$GPVTG,26.9,T,26.9,M,2.5,N,4.7,K,A*27

11:49:13.124$GPRMC,174914,A,4011.587525,N,10505.361697,W,2.5,26.9,230716,7.7,E,A*3D

11:49:13.124$GPGGA,174914,4011.587525,N,10505.361697,W,1,07,0.7,1552.0,M,-21.0,M,,*42

11:49:14.121$GPGSV,4,1,13,01,25,047,31,06,23,178,29,11,11,045,29,17,80,309,31*77

11:49:14.121$GPGSV,4,2,13,19,56,244,23,28,58,064,34,30,26,154,26,03,01,092,*7D

11:49:14.121$GPGSV,4,3,13,07,01,150,,13,20,241,,15,13,275,,22,02,070,*7A

11:49:14.121$GPGSV,4,4,13,24,18,314,*42

11:49:14.122$GLGSV,2,1,08,82,77,236,24,80,63,333,24,79,51,129,29,81,45,032,37*6B

11:49:14.122$GLGSV,2,2,08,78,09,137,,73,08,322,,83,20,217,,72,00,000,*69

11:49:14.127$GPGSA,A,3,01,06,11,17,19,28,30,,,,,,1.0,0.7,0.7*33

11:49:14.127$GPVTG,34.4,T,34.4,M,2.3,N,4.3,K,A*25

11:49:14.127$GPRMC,174915,A,4011.588090,N,10505.361370,W,2.3,34.4,230716,7.7,E,A*3C

11:49:14.127$GPGGA,174915,4011.588090,N,10505.361370,W,1,07,0.7,1552.0,M,-21.0,M,,*4B

11:49:15.121$GPGSV,3,1,12,01,25,047,33,06,23,178,30,11,11,045,28,17,80,309,30*7B

11:49:15.121$GPGSV,3,2,12,19,56,244,25,24,18,314,24,28,58,064,33,03,01,092,*76

11:49:15.121$GPGSV,3,3,12,07,01,150,,13,20,241,,15,13,275,,22,02,070,*7C

11:49:15.121$GLGSV,2,1,06,79,51,129,30,81,45,032,34,78,09,137,,73,08,322,*61

11:49:15.121$GLGSV,2,2,06,83,20,217,,72,00,000,*6B

11:49:15.125$GPGSA,A,3,01,06,11,17,19,24,28,,,,,,1.0,0.7,0.7*36

11:49:15.125$GPVTG,28.2,T,28.2,M,2.7,N,5.0,K,A*23

11:49:15.125$GPRMC,174916,A,4011.588824,N,10505.360954,W,2.7,28.2,230716,7.7,E,A*3A

11:49:15.126$GPGGA,174916,4011.588824,N,10505.360954,W,1,07,0.7,1552.0,M,-21.0,M,,*42

11:49:16.119$GPGSV,3,1,12,01,25,047,34,06,23,178,27,11,11,045,28,17,80,309,27*7C

11:49:16.119$GPGSV,3,2,12,22,02,070,24,24,18,314,25,28,58,064,29,30,26,154,25*78

11:49:16.119$GPGSV,3,3,12,03,01,092,,07,01,150,,13,20,241,,15,13,275,*70

11:49:16.119$GLGSV,2,1,08,73,08,322,24,79,51,129,30,81,45,032,33,78,09,137,*6E

11:49:16.119$GLGSV,2,2,08,82,77,236,,80,63,333,,83,20,217,,72,00,000,*66

11:49:16.124$GPGSA,A,3,01,06,11,17,22,24,28,30,,,,,1.2,0.9,0.8*3E

11:49:16.124$GPVTG,12.0,T,12.0,M,2.4,N,4.4,K,A*25

11:49:16.124$GPRMC,174917,A,4011.589610,N,10505.361098,W,2.4,12.0,230716,7.7,E,A*33

11:49:16.124$GPGGA,174917,4011.589610,N,10505.361098,W,1,08,0.9,1551.0,M,-21.0,M,,*41

11:49:17.117$GPGSV,3,1,11,01,25,047,31,06,23,178,29,11,11,045,29,15,13,275,25*75

11:49:17.117$GPGSV,3,2,11,17,80,309,31,19,56,244,24,28,58,064,33,30,26,154,25*74

11:49:17.117$GPGSV,3,3,11,03,01,092,,07,01,150,,13,20,241,*45

11:49:17.117$GLGSV,2,1,07,80,63,333,23,79,51,129,33,81,45,032,32,78,09,137,*65

11:49:17.117$GLGSV,2,2,07,82,77,236,,83,20,217,,72,00,000,*57

11:49:17.119$GPGSA,A,3,01,06,11,15,17,19,28,30,,,,,1.1,0.8,0.8*36

11:49:17.119$GPVTG,29.8,T,29.8,M,3.6,N,6.7,K,A*27

11:49:17.120$GPRMC,174918,A,4011.590259,N,10505.360779,W,3.6,29.8,230716,7.7,E,A*37

11:49:17.120$GPGGA,174918,4011.590259,N,10505.360779,W,1,08,0.8,1550.0,M,-21.0,M,,*46

11:49:18.121$GPGSV,4,1,13,01,25,047,34,06,23,178,29,11,11,045,31,15,13,275,25*7C

11:49:18.121$GPGSV,4,2,13,17,80,309,31,19,56,244,26,28,58,064,34,30,26,154,25*74

11:49:18.121$GPGSV,4,3,13,03,01,092,,07,01,150,,13,20,241,,22,02,070,*75

11:49:18.121$GPGSV,4,4,13,24,18,314,*42

11:49:18.121$GLGSV,2,1,08,78,09,137,25,82,77,236,24,80,63,333,28,79,51,129,32*64

11:49:18.121$GLGSV,2,2,08,81,45,032,34,73,08,322,,83,20,217,,72,00,000,*64

11:49:18.127$GPGSA,A,3,01,06,11,15,17,19,28,30,,,,,1.0,0.7,0.7*37

11:49:18.127$GPVTG,49.9,T,49.9,M,3.8,N,7.0,K,A*2F

11:49:18.128$GPRMC,174919,A,4011.590790,N,10505.359955,W,3.8,49.9,230716,7.7,E,A*35

11:49:18.128$GPGGA,174919,4011.590790,N,10505.359955,W,1,08,0.7,1550.0,M,-21.0,M,,*42

11:49:19.122$GPGSV,3,1,12,01,25,047,32,06,23,178,30,11,11,045,33,17,80,309,30*70

11:49:19.122$GPGSV,3,2,12,19,56,244,23,28,58,064,35,30,26,154,25,03,01,092,*79

11:49:19.122$GPGSV,3,3,12,07,01,150,,13,20,241,,22,02,070,,24,18,314,*73

11:49:19.122$GLGSV,2,1,07,82,77,236,24,80,63,333,27,79,51,129,33,81,45,032,33*68

11:49:19.122$GLGSV,2,2,07,73,08,322,,83,20,217,,72,00,000,*55

11:49:19.126$GPGSA,A,3,01,06,11,17,19,28,30,,,,,,1.0,0.7,0.7*33

11:49:19.126$GPVTG,48.2,T,48.2,M,2.4,N,4.4,K,A*25

11:49:19.126$GPRMC,174920,A,4011.591111,N,10505.359025,W,2.4,48.2,230716,7.7,E,A*38

11:49:19.126$GPGGA,174920,4011.591111,N,10505.359025,W,1,07,0.7,1549.0,M,-21.0,M,,*4F

11:49:20.119$GPGSV,4,1,13,01,25,047,33,03,01,092,23,06,23,178,24,11,11,045,30*7E

11:49:20.119$GPGSV,4,2,13,17,80,309,26,19,56,244,27,28,58,064,37,30,26,154,26*73

11:49:20.119$GPGSV,4,3,13,07,01,150,,13,20,241,,15,13,275,,22,02,070,*7A

11:49:20.119$GPGSV,4,4,13,24,18,314,*42

11:49:20.119$GLGSV,2,1,08,82,77,236,25,80,63,333,30,79,51,129,29,81,45,032,31*69

11:49:20.119$GLGSV,2,2,08,78,09,137,,73,08,322,,83,20,217,,72,00,000,*69

11:49:20.123$GPGSA,A,3,01,03,06,11,17,19,28,30,,,,,1.0,0.7,0.7*30

11:49:20.123$GPVTG,48.3,T,48.3,M,3.1,N,5.8,K,A*2C

11:49:20.123$GPRMC,174921,A,4011.591398,N,10505.358166,W,3.1,48.3,230716,7.7,E,A*38

11:49:20.123$GPGGA,174921,4011.591398,N,10505.358166,W,1,08,0.7,1549.0,M,-21.0,M,,*45

11:49:21.103$GPGSV,4,1,13,01,25,047,33,03,01,092,23,06,23,178,24,11,11,045,30*7E

11:49:21.103$GPGSV,4,2,13,17,80,309,26,19,56,244,27,28,58,064,37,30,26,154,26*73

11:49:21.103$GPGSV,4,3,13,07,01,150,,13,20,241,,15,13,275,,22,02,070,*7A

11:49:21.103$GPGSV,4,4,13,24,18,314,*42

11:49:21.103$GLGSV,2,1,08,82,77,236,25,80,63,333,30,79,51,129,29,81,45,032,31*69

11:49:21.103$GLGSV,2,2,08,78,09,137,,73,08,322,,83,20,217,,72,00,000,*69

11:49:21.105$GPGSA,A,3,01,03,06,11,17,19,28,30,,,,,1.0,0.7,0.7*30

11:49:21.105$GPVTG,48.4,T,48.4,M,3.1,N,5.8,K,A*2C

11:49:21.105$GPRMC,174922,A,4011.591878,N,10505.357297,W,3.1,48.4,230716,7.7,E,A*3B

11:49:21.105$GPGGA,174922,4011.591878,N,10505.357297,W,1,08,0.7,1548.0,M,-21.0,M,,*40

11:49:22.122$GPGSV,3,1,10,01,25,047,33,06,23,178,23,11,11,045,35,17,80,309,30*77

11:49:22.123$GPGSV,3,2,10,24,18,314,27,28,58,064,32,30,26,154,33,07,01,150,*74

11:49:22.123$GPGSV,3,3,10,13,20,241,,22,02,070,*7A

11:49:22.123$GLGSV,2,1,06,78,09,137,23,79,51,129,24,81,45,032,35,73,08,322,*64

11:49:22.123$GLGSV,2,2,06,83,20,217,,72,00,000,*6B

11:49:22.127$GPGSA,A,3,01,06,11,17,24,28,30,,,,,,1.0,0.7,0.7*3D

11:49:22.127$GPVTG,41.2,T,41.2,M,2.4,N,4.4,K,A*25

11:49:22.127$GPRMC,174923,A,4011.592227,N,10505.356747,W,2.4,41.2,230716,7.7,E,A*3B

11:49:22.127$GPGGA,174923,4011.592227,N,10505.356747,W,1,07,0.7,1548.0,M,-21.0,M,,*44

11:49:23.137$GPGSV,4,1,13,01,25,047,34,06,23,178,26,11,11,045,37,15,13,275,23*73

11:49:23.137$GPGSV,4,2,13,17,80,309,30,24,18,314,25,28,58,064,33,30,26,154,32*77

11:49:23.138$GPGSV,4,3,13,03,01,092,,07,01,150,,13,20,241,,19,56,244,*79

11:49:23.138$GPGSV,4,4,13,22,02,070,*4E

11:49:23.138$GLGSV,2,1,07,82,77,236,27,80,63,333,24,79,51,129,28,81,45,032,33*62

11:49:23.138$GLGSV,2,2,07,73,08,322,,83,20,217,,72,00,000,*55

11:49:23.141$GPGSA,A,3,01,06,11,15,17,24,28,30,,,,,1.0,0.7,0.7*39

11:49:23.141$GPVTG,31.1,T,31.1,M,2.3,N,4.2,K,A*24

11:49:23.141$GPRMC,174924,A,4011.592646,N,10505.356438,W,2.3,31.1,230716,7.7,E,A*37

11:49:23.141$GPGGA,174924,4011.592646,N,10505.356438,W,1,08,0.7,1548.0,M,-21.0,M,,*44

11:49:24.121$GPGSV,3,1,11,01,25,047,33,06,23,178,26,11,11,045,35,17,80,309,26*74

11:49:24.121$GPGSV,3,2,11,28,58,064,33,30,26,154,29,03,01,092,,07,01,150,*7A

11:49:24.121$GPGSV,3,3,11,13,20,241,,19,56,244,,22,02,070,*42

11:49:24.122$GLGSV,2,1,08,82,77,236,24,80,63,333,23,79,51,129,27,81,45,032,31*64

11:49:24.122$GLGSV,2,2,08,78,09,137,,73,08,322,,83,20,217,,72,00,000,*69

11:49:24.125$GPGSA,A,3,01,06,11,17,28,30,,,,,,,1.0,0.7,0.7*3B

11:49:24.125$GPVTG,26.8,T,26.8,M,2.3,N,4.3,K,A*25

11:49:24.125$GPRMC,174925,A,4011.593186,N,10505.356219,W,2.3,26.8,230716,7.7,E,A*36

11:49:24.125$GPGGA,174925,4011.593186,N,10505.356219,W,1,06,0.7,1549.0,M,-21.0,M,,*45

11:49:25.104$GPGSV,3,1,11,01,25,047,33,06,23,178,26,11,11,045,35,17,80,309,26*74

11:49:25.104$GPGSV,3,2,11,28,58,064,33,30,26,154,29,03,01,092,,07,01,150,*7A

11:49:25.104$GPGSV,3,3,11,13,20,241,,19,56,244,,22,02,070,*42

11:49:25.104$GLGSV,2,1,08,82,77,236,24,80,63,333,23,79,51,129,27,81,45,032,31*64

11:49:25.104$GLGSV,2,2,08,78,09,137,,73,08,322,,83,20,217,,72,00,000,*69

11:49:25.106$GPGSA,A,3,01,06,11,17,28,30,,,,,,,1.0,0.7,0.7*3B

11:49:25.106$GPVTG,27.2,T,27.2,M,2.4,N,4.4,K,A*25

11:49:25.106$GPRMC,174926,A,4011.593738,N,10505.355958,W,2.4,27.2,230716,7.7,E,A*37

11:49:25.106$GPGGA,174926,4011.593738,N,10505.355958,W,1,06,0.7,1549.0,M,-21.0,M,,*48

11:49:26.112$GPGSV,3,1,12,06,23,178,33,11,11,045,29,13,20,241,33,17,80,309,28*72

11:49:26.113$GPGSV,3,2,12,19,56,244,33,28,58,064,24,30,26,154,34,03,01,092,*78

11:49:26.113$GPGSV,3,3,12,07,01,150,,15,13,275,,22,02,070,,24,18,314,*72

11:49:26.113$GLGSV,2,1,07,82,77,236,29,80,63,333,24,79,51,129,26,83,20,217,30*65

11:49:26.113$GLGSV,2,2,07,81,45,032,33,73,08,322,,72,00,000,*51

11:49:26.115$GPGSA,A,3,06,11,13,17,19,28,30,,,,,,1.0,0.7,0.7*30

11:49:26.115$GPVTG,62.7,T,62.7,M,2.8,N,5.1,K,A*2D

11:49:26.115$GPRMC,174927,A,4011.593931,N,10505.355247,W,2.8,62.7,230716,7.7,E,A*3C

11:49:26.116$GPGGA,174927,4011.593931,N,10505.355247,W,1,07,0.7,1549.0,M,-21.0,M,,*4A

11:49:27.119$GPGSV,4,1,13,06,23,178,33,11,11,045,24,13,20,241,26,17,80,309,28*7D

11:49:27.119$GPGSV,4,2,13,19,56,244,24,28,58,064,33,30,26,154,34,01,25,047,*72

11:49:27.119$GPGSV,4,3,13,03,01,092,,07,01,150,,15,13,275,,22,02,070,*74

11:49:27.119$GPGSV,4,4,13,24,18,314,*42

11:49:27.119$GLGSV,2,1,07,82,77,236,26,79,51,129,29,83,20,217,29,81,45,032,24*6A

11:49:27.119$GLGSV,2,2,07,78,09,137,,73,08,322,,72,00,000,*5B

11:49:27.121$GPGSA,A,3,06,11,13,17,19,28,30,,,,,,1.0,0.7,0.7*30

11:49:27.121$GPVTG,104.8,T,104.8,M,2.8,N,5.3,K,A*2F

11:49:27.121$GPRMC,174928,A,4011.593724,N,10505.354275,W,2.8,104.8,230716,7.7,E,A*07

11:49:27.121$GPGGA,174928,4011.593724,N,10505.354275,W,1,07,0.7,1549.0,M,-21.0,M,,*4F

11:49:28.111$GPGSV,4,1,13,01,25,047,27,06,23,178,36,11,11,045,27,13,20,241,30*72

11:49:28.111$GPGSV,4,2,13,17,80,309,29,19,56,244,24,28,58,064,33,30,26,154,33*7F

11:49:28.111$GPGSV,4,3,13,03,01,092,,07,01,150,,15,13,275,,22,02,070,*74

11:49:28.111$GPGSV,4,4,13,24,18,314,*42

11:49:28.111$GLGSV,2,1,08,82,77,236,26,79,51,129,28,83,20,217,29,81,45,032,28*68

11:49:28.111$GLGSV,2,2,08,78,09,137,,73,08,322,,80,63,333,,72,00,000,*6A

11:49:28.113$GPGSA,A,3,01,06,11,13,17,19,28,30,,,,,1.0,0.7,0.7*31

11:49:28.113$GPVTG,118.4,T,118.4,M,2.7,N,5.0,K,A*23

11:49:28.113$GPRMC,174929,A,4011.593183,N,10505.353219,W,2.7,118.4,230716,7.7,E,A*0E

11:49:28.113$GPGGA,174929,4011.593183,N,10505.353219,W,1,08,0.7,1550.0,M,-21.0,M,,*4F

11:49:29.112$GPGSV,3,1,12,01,25,047,25,06,23,178,36,13,20,241,29,15,13,275,22*7C

11:49:29.112$GPGSV,3,2,12,17,80,309,29,19,56,244,26,28,58,064,34,30,26,154,34*7B

11:49:29.112$GPGSV,3,3,12,03,01,092,,07,01,150,,22,02,070,,24,18,314,*7D

11:49:29.112$GLGSV,2,1,08,82,77,236,27,79,51,129,30,83,20,217,30,81,45,032,28*68

11:49:29.112$GLGSV,2,2,08,78,09,137,,73,08,322,,80,63,333,,72,00,000,*6A

11:49:29.113$GPGSA,A,3,01,06,13,15,17,19,28,30,,,,,1.0,0.7,0.7*35

11:49:29.113$GPVTG,121.5,T,121.5,M,3.1,N,5.8,K,A*2C

11:49:29.113$GPRMC,174930,A,4011.592535,N,10505.352321,W,3.1,121.5,230716,7.7,E,A*09

11:49:29.113$GPGGA,174930,4011.592535,N,10505.352321,W,1,08,0.7,1549.0,M,-21.0,M,,*4C

11:49:30.109$GPGSV,3,1,12,01,25,047,28,06,23,178,33,11,11,045,27,13,20,241,30*7E

11:49:30.109$GPGSV,3,2,12,17,80,309,25,19,56,244,27,28,58,064,35,30,26,154,33*70

11:49:30.109$GPGSV,3,3,12,03,01,092,,07,01,150,,22,02,070,,24,18,314,*7D

11:49:30.109$GLGSV,2,1,08,82,77,236,29,79,51,129,28,83,20,217,29,81,45,032,28*67

11:49:30.109$GLGSV,2,2,08,78,09,137,,73,08,322,,80,63,333,,72,00,000,*6A

11:49:30.111$GPGSA,A,3,01,06,11,13,17,19,28,30,,,,,1.0,0.7,0.7*31

11:49:30.111$GPVTG,112.5,T,112.5,M,2.6,N,4.8,K,A*2B

11:49:30.111$GPRMC,174931,A,4011.591922,N,10505.351345,W,2.6,112.5,230716,7.7,E,A*06

11:49:30.111$GPGGA,174931,4011.591922,N,10505.351345,W,1,08,0.7,1549.0,M,-21.0,M,,*45

11:49:31.110$GPGSV,4,1,13,01,25,047,33,06,23,178,33,11,11,045,33,13,20,241,36*71

11:49:31.110$GPGSV,4,2,13,15,13,275,28,17,80,309,31,19,56,244,31,28,58,064,34*7E

11:49:31.110$GPGSV,4,3,13,30,26,154,38,03,01,092,,07,01,150,,22,02,070,*7E

11:49:31.110$GPGSV,4,4,13,24,18,314,*42

11:49:31.111$GLGSV,2,1,08,73,08,322,23,82,77,236,32,80,63,333,23,79,51,129,34*64

11:49:31.111$GLGSV,2,2,08,83,20,217,33,81,45,032,25,78,09,137,,72,00,000,*68

11:49:31.112$GPGSA,A,3,01,06,11,13,15,17,19,28,30,,,,1.1,0.8,0.7*3B

11:49:31.112$GPVTG,147.2,T,147.2,M,2.5,N,4.7,K,A*27

11:49:31.112$GPRMC,174932,A,4011.591263,N,10505.350607,W,2.5,147.2,230716,7.7,E,A*0D

11:49:31.112$GPGGA,174932,4011.591263,N,10505.350607,W,1,09,0.8,1550.0,M,-21.0,M,,*4C

11:49:32.112$GPGSV,3,1,11,06,23,178,29,13,20,241,35,15,13,275,33,17,80,309,33*7A

11:49:32.113$GPGSV,3,2,11,19,56,244,35,28,58,064,28,30,26,154,40,03,01,092,*72

11:49:32.113$GPGSV,3,3,11,07,01,150,,22,02,070,,24,18,314,*47

11:49:32.113$GLGSV,2,1,07,82,77,236,35,80,63,333,31,79,51,129,30,83,20,217,30*6B

11:49:32.113$GLGSV,2,2,07,81,45,032,24,78,09,137,,72,00,000,*5B

11:49:32.114$GPGSA,A,3,06,13,15,17,19,28,30,,,,,,1.1,0.8,0.7*3A

11:49:32.115$GPVTG,147.2,T,147.2,M,2.7,N,5.1,K,A*22

11:49:32.115$GPRMC,174933,A,4011.590467,N,10505.349986,W,2.7,147.2,230716,7.7,E,A*03

11:49:32.115$GPGGA,174933,4011.590467,N,10505.349986,W,1,07,0.8,1549.0,M,-21.0,M,,*46

11:49:33.109$GPGSV,4,1,13,06,23,178,33,13,20,241,39,15,13,275,34,17,80,309,30*7C

11:49:33.110$GPGSV,4,2,13,19,56,244,34,28,58,064,27,30,26,154,36,01,25,047,*74

11:49:33.110$GPGSV,4,3,13,03,01,092,,07,01,150,,11,11,045,,22,02,070,*73

11:49:33.110$GPGSV,4,4,13,24,18,314,*42

11:49:33.110$GLGSV,2,1,08,82,77,236,34,80,63,333,26,79,51,129,28,83,20,217,34*6E

11:49:33.110$GLGSV,2,2,08,81,45,032,26,78,09,137,,73,08,322,,72,00,000,*69

11:49:33.112$GPGSA,A,3,06,13,15,17,19,28,30,,,,,,1.1,0.8,0.7*3A

11:49:33.112$GPVTG,169.8,T,169.8,M,2.4,N,4.5,K,A*24

11:49:33.112$GPRMC,174934,A,4011.589621,N,10505.349825,W,2.4,169.8,230716,7.7,E,A*01

11:49:33.112$GPGGA,174934,4011.589621,N,10505.349825,W,1,07,0.8,1549.0,M,-21.0,M,,*41

11:49:34.111$GPGSV,4,1,13,06,23,178,34,13,20,241,37,15,13,275,33,17,80,309,34*76

11:49:34.111$GPGSV,4,2,13,19,56,244,34,24,18,314,26,28,58,064,26,30,26,154,32*79

11:49:34.111$GPGSV,4,3,13,01,25,047,,03,01,092,,07,01,150,,11,11,045,*73

11:49:34.111$GPGSV,4,4,13,22,02,070,*4E

11:49:34.111$GLGSV,2,1,08,82,77,236,36,80,63,333,28,79,51,129,32,83,20,217,36*6B

11:49:34.111$GLGSV,2,2,08,81,45,032,27,78,09,137,,73,08,322,,72,00,000,*68

11:49:34.111$GPGSA,A,3,06,13,15,17,19,24,28,30,,,,,1.0,0.7,0.7*32

11:49:34.111$GPVTG,192.0,T,192.0,M,2.5,N,4.7,K,A*27

11:49:34.112$GPRMC,174935,A,4011.588723,N,10505.350194,W,2.5,192.0,230716,7.7,E,A*04

11:49:34.112$GPGGA,174935,4011.588723,N,10505.350194,W,1,08,0.7,1548.0,M,-21.0,M,,*48

11:49:35.110$GPGSV,3,1,12,06,23,178,29,13,20,241,36,15,13,275,33,17,80,309,36*7F

11:49:35.110$GPGSV,3,2,12,19,56,244,32,28,58,064,24,30,26,154,34,01,25,047,*75

11:49:35.110$GPGSV,3,3,12,03,01,092,,07,01,150,,11,11,045,,22,02,070,*75

11:49:35.110$GLGSV,2,1,08,73,08,322,25,82,77,236,35,80,63,333,31,79,51,129,30*62

11:49:35.110$GLGSV,2,2,08,83,20,217,36,81,45,032,25,78,09,137,,72,00,000,*6D

11:49:35.112$GPGSA,A,3,06,13,15,17,19,28,30,,,,,,1.0,0.7,0.7*34

11:49:35.112$GPVTG,208.5,T,208.5,M,3.4,N,6.4,K,A*26

11:49:35.112$GPRMC,174936,A,4011.587762,N,10505.350966,W,3.4,208.5,230716,7.7,E,A*0D

11:49:35.112$GPGGA,174936,4011.587762,N,10505.350966,W,1,07,0.7,1548.0,M,-21.0,M,,*4B

11:49:36.113$GPGSV,4,1,13,06,23,178,31,13,20,241,37,15,13,275,32,17,80,309,31*77

11:49:36.113$GPGSV,4,2,13,19,56,244,34,28,58,064,25,30,26,154,33,01,25,047,*73

11:49:36.113$GPGSV,4,3,13,03,01,092,,07,01,150,,11,11,045,,22,02,070,*73

11:49:36.113$GPGSV,4,4,13,24,18,314,*42

11:49:36.113$GLGSV,2,1,08,73,08,322,28,82,77,236,33,80,63,333,30,79,51,129,28*61

11:49:36.113$GLGSV,2,2,08,83,20,217,35,81,45,032,29,78,09,137,,72,00,000,*62

11:49:36.117$GPGSA,A,3,06,13,15,17,19,28,30,,,,,,1.0,0.7,0.7*34

11:49:36.118$GPVTG,212.0,T,212.0,M,2.8,N,5.2,K,A*2E

11:49:36.118$GPRMC,174937,A,4011.586817,N,10505.351829,W,2.8,212.0,230716,7.7,E,A*08

11:49:36.118$GPGGA,174937,4011.586817,N,10505.351829,W,1,07,0.7,1548.0,M,-21.0,M,,*4D

11:49:37.123$GPGSV,4,1,13,06,23,178,32,13,20,241,36,15,13,275,29,17,80,309,30*7E

11:49:37.123$GPGSV,4,2,13,19,56,244,32,24,18,314,29,28,58,064,25,30,26,154,36*77

11:49:37.123$GPGSV,4,3,13,01,25,047,,03,01,092,,07,01,150,,11,11,045,*73

11:49:37.123$GPGSV,4,4,13,22,02,070,*4E

11:49:37.123$GLGSV,2,1,07,82,77,236,31,80,63,333,26,79,51,129,25,83,20,217,35*68

11:49:37.123$GLGSV,2,2,07,81,45,032,23,78,09,137,,72,00,000,*5C

11:49:37.126$GPGSA,A,3,06,13,15,17,19,24,28,30,,,,,1.2,0.9,0.8*31

11:49:37.126$GPVTG,212.0,T,212.0,M,2.7,N,5.0,K,A*23

11:49:37.127$GPRMC,174938,A,4011.585989,N,10505.352596,W,2.7,212.0,230716,7.7,E,A*07

11:49:37.127$GPGGA,174938,4011.585989,N,10505.352596,W,1,08,0.9,1548.0,M,-21.0,M,,*4C

11:49:38.123$GPGSV,4,1,13,06,23,178,30,13,20,241,36,15,13,275,29,17,80,309,30*7C

11:49:38.123$GPGSV,4,2,13,19,56,244,33,24,18,314,26,28,58,064,27,30,26,154,34*79

11:49:38.123$GPGSV,4,3,13,01,25,047,,03,01,092,,07,01,150,,11,11,045,*73

11:49:38.123$GPGSV,4,4,13,22,02,070,*4E

11:49:38.123$GLGSV,2,1,06,82,77,236,29,80,63,333,23,83,20,217,34,78,09,137,*60

11:49:38.123$GLGSV,2,2,06,73,08,322,,72,00,000,*69

11:49:38.127$GPGSA,A,3,06,13,15,17,19,24,28,30,,,,,1.2,0.9,0.8*31

11:49:38.127$GPVTG,212.0,T,212.0,M,2.4,N,4.5,K,A*24

11:49:38.127$GPRMC,174939,A,4011.585278,N,10505.353350,W,2.4,212.0,230716,7.7,E,A*0D

11:49:38.127$GPGGA,174939,4011.585278,N,10505.353350,W,1,08,0.9,1548.0,M,-21.0,M,,*45

11:49:39.121$GPGSV,4,1,13,06,23,178,26,13,20,241,34,15,13,275,25,17,80,309,33*76

11:49:39.121$GPGSV,4,2,13,19,56,244,33,24,18,314,29,28,58,064,28,30,26,154,33*7E

11:49:39.121$GPGSV,4,3,13,01,25,047,,03,01,092,,07,01,150,,11,11,045,*73

11:49:39.121$GPGSV,4,4,13,22,02,070,*4E

11:49:39.121$GLGSV,2,1,08,82,77,236,29,80,63,333,28,83,20,217,33,78,09,137,*62

11:49:39.121$GLGSV,2,2,08,73,08,322,,79,51,129,,81,45,032,,72,00,000,*6E

11:49:39.126$GPGSA,A,3,06,13,15,17,19,24,28,30,,,,,1.2,0.9,0.8*31

11:49:39.126$GPVTG,222.6,T,222.6,M,3.1,N,5.8,K,A*2C

11:49:39.126$GPRMC,174940,A,4011.584414,N,10505.354229,W,3.1,222.6,230716,7.7,E,A*07

11:49:39.127$GPGGA,174940,4011.584414,N,10505.354229,W,1,08,0.9,1548.0,M,-21.0,M,,*4E

11:49:40.123$GPGSV,4,1,13,06,23,178,30,13,20,241,36,15,13,275,26,17,80,309,32*71

11:49:40.123$GPGSV,4,2,13,19,56,244,30,24,18,314,25,28,58,064,24,30,26,154,32*7C

11:49:40.123$GPGSV,4,3,13,01,25,047,,03,01,092,,07,01,150,,11,11,045,*73

11:49:40.123$GPGSV,4,4,13,22,02,070,*4E

11:49:40.123$GLGSV,2,1,08,82,77,236,28,80,63,333,28,79,51,129,23,83,20,217,35*67

11:49:40.123$GLGSV,2,2,08,81,45,032,25,78,09,137,,73,08,322,,72,00,000,*6A

11:49:40.128$GPGSA,A,3,06,13,15,17,19,24,28,30,,,,,1.2,0.9,0.8*31

11:49:40.128$GPVTG,225.5,T,225.5,M,2.8,N,5.1,K,A*2D

11:49:40.128$GPRMC,174941,A,4011.583689,N,10505.355134,W,2.8,225.5,230716,7.7,E,A*05

11:49:40.128$GPGGA,174941,4011.583689,N,10505.355134,W,1,08,0.9,1549.0,M,-21.0,M,,*41

11:49:41.123$GPGSV,4,1,13,06,23,178,31,13,20,241,36,15,13,275,28,17,80,309,32*7E

11:49:41.123$GPGSV,4,2,13,19,56,244,32,24,18,314,29,28,58,064,23,30,26,154,33*74

11:49:41.123$GPGSV,4,3,13,01,25,047,,03,01,092,,07,01,150,,11,11,045,*73

11:49:41.123$GPGSV,4,4,13,22,02,070,*4E

11:49:41.123$GLGSV,2,1,07,82,77,236,32,79,51,129,23,83,20,217,36,81,45,032,29*66

11:49:41.124$GLGSV,2,2,07,78,09,137,,73,08,322,,72,00,000,*5B

11:49:41.129$GPGSA,A,3,06,13,15,17,19,24,28,30,,,,,1.2,0.9,0.8*31

11:49:41.129$GPVTG,224.8,T,224.8,M,1.9,N,3.6,K,A*2E

11:49:41.129$GPRMC,174942,A,4011.583265,N,10505.355815,W,1.9,224.8,230716,7.7,E,A*04

11:49:41.129$GPGGA,174942,4011.583265,N,10505.355815,W,1,08,0.9,1549.0,M,-21.0,M,,*4E

11:49:42.123$GPGSV,4,1,13,06,23,178,31,11,11,045,23,13,20,241,36,15,13,275,33*71

11:49:42.123$GPGSV,4,2,13,17,80,309,27,19,56,244,31,24,18,314,28,28,58,064,27*74

11:49:42.123$GPGSV,4,3,13,30,26,154,31,01,25,047,,03,01,092,,07,01,150,*77

11:49:42.123$GPGSV,4,4,13,22,02,070,*4E

11:49:42.123$GLGSV,2,1,08,82,77,236,29,79,51,129,23,83,20,217,35,81,45,032,23*6A

11:49:42.123$GLGSV,2,2,08,78,09,137,,73,08,322,,80,63,333,,72,00,000,*6A

11:49:42.127$GPGSA,A,3,06,11,13,15,17,19,24,28,30,,,,1.1,0.8,0.7*3C

11:49:42.127$GPVTG,219.1,T,219.1,M,3.9,N,7.3,K,A*2D

11:49:42.127$GPRMC,174943,A,4011.582728,N,10505.356649,W,3.9,219.1,230716,7.7,E,A*09

11:49:42.127$GPGGA,174943,4011.582728,N,10505.356649,W,1,09,0.8,1549.0,M,-21.0,M,,*46

11:49:43.122$GPGSV,4,1,13,06,23,178,30,11,11,045,23,13,20,241,36,15,13,275,31*72

11:49:43.122$GPGSV,4,2,13,17,80,309,29,19,56,244,31,24,18,314,29,28,58,064,28*74

11:49:43.122$GPGSV,4,3,13,30,26,154,32,01,25,047,,03,01,092,,07,01,150,*74

11:49:43.122$GPGSV,4,4,13,22,02,070,*4E

11:49:43.122$GLGSV,2,1,07,79,51,129,26,83,20,217,33,81,45,032,25,78,09,137,*65

11:49:43.122$GLGSV,2,2,07,73,08,322,,80,63,333,,72,00,000,*56

11:49:43.127$GPGSA,A,3,06,11,13,15,17,19,24,28,30,,,,1.1,0.8,0.7*3C

11:49:43.127$GPVTG,219.1,T,219.1,M,3.7,N,6.8,K,A*29

11:49:43.127$GPRMC,174944,A,4011.581907,N,10505.357634,W,3.7,219.1,230716,7.7,E,A*0B

11:49:43.127$GPGGA,174944,4011.581907,N,10505.357634,W,1,09,0.8,1550.0,M,-21.0,M,,*42

11:49:44.124$GPGSV,3,1,12,06,23,178,33,13,20,241,36,15,13,275,33,17,80,309,24*77

11:49:44.124$GPGSV,3,2,12,19,56,244,34,24,18,314,31,28,58,064,26,30,26,154,37*7C

11:49:44.125$GPGSV,3,3,12,01,25,047,,03,01,092,,07,01,150,,22,02,070,*71

11:49:44.125$GLGSV,2,1,07,82,77,236,27,83,20,217,36,81,45,032,28,78,09,137,*61

11:49:44.125$GLGSV,2,2,07,73,08,322,,80,63,333,,72,00,000,*56

11:49:44.128$GPGSA,A,3,06,13,15,17,19,24,28,30,,,,,1.1,0.8,0.7*3C

11:49:44.128$GPVTG,221.2,T,221.2,M,3.8,N,7.1,K,A*2E

11:49:44.128$GPRMC,174945,A,4011.581210,N,10505.358617,W,3.8,221.2,230716,7.7,E,A*0E

11:49:44.128$GPGGA,174945,4011.581210,N,10505.358617,W,1,08,0.8,1549.0,M,-21.0,M,,*49

11:49:45.123$GPGSV,4,1,13,06,23,178,34,13,20,241,38,15,13,275,35,17,80,309,30*7B

11:49:45.123$GPGSV,4,2,13,19,56,244,32,24,18,314,29,28,58,064,26,30,26,154,40*75

11:49:45.123$GPGSV,4,3,13,01,25,047,,03,01,092,,07,01,150,,11,11,045,*73

11:49:45.123$GPGSV,4,4,13,22,02,070,*4E

11:49:45.123$GLGSV,2,1,08,82,77,236,27,83,20,217,34,81,45,032,27,78,09,137,*63

11:49:45.123$GLGSV,2,2,08,73,08,322,,80,63,333,,79,51,129,,72,00,000,*69

11:49:45.128$GPGSA,A,3,06,13,15,17,19,24,28,30,,,,,1.1,0.8,0.7*3C

11:49:45.128$GPVTG,222.3,T,222.3,M,3.9,N,7.3,K,A*2D

11:49:45.128$GPRMC,174946,A,4011.580542,N,10505.359558,W,3.9,222.3,230716,7.7,E,A*06

11:49:45.128$GPGGA,174946,4011.580542,N,10505.359558,W,1,08,0.8,1549.0,M,-21.0,M,,*42

11:49:46.124$GPGSV,4,1,13,06,23,178,32,13,20,241,35,15,13,275,32,17,80,309,32*75

11:49:46.124$GPGSV,4,2,13,19,56,244,33,24,18,314,27,28,58,064,27,30,26,154,37*7B

11:49:46.124$GPGSV,4,3,13,01,25,047,,03,01,092,,07,01,150,,11,11,045,*73

11:49:46.124$GPGSV,4,4,13,22,02,070,*4E

11:49:46.124$GLGSV,2,1,08,82,77,236,30,80,63,333,23,83,20,217,34,81,45,032,22*6C

11:49:46.124$GLGSV,2,2,08,78,09,137,,73,08,322,,79,51,129,,72,00,000,*64

11:49:46.127$GPGSA,A,3,06,13,15,17,19,24,28,30,,,,,1.1,0.8,0.7*3C

11:49:46.127$GPVTG,221.0,T,221.0,M,2.7,N,5.0,K,A*23

11:49:46.127$GPRMC,174947,A,4011.579963,N,10505.360293,W,2.7,221.0,230716,7.7,E,A*0B

11:49:46.127$GPGGA,174947,4011.579963,N,10505.360293,W,1,08,0.8,1549.0,M,-21.0,M,,*40

11:49:47.126$GPGSV,4,1,13,06,23,178,33,11,11,045,24,13,20,241,35,15,13,275,29*7C

11:49:47.126$GPGSV,4,2,13,17,80,309,31,19,56,244,30,24,18,314,27,28,58,064,25*7F

11:49:47.126$GPGSV,4,3,13,30,26,154,37,01,25,047,,03,01,092,,07,01,150,*71

11:49:47.126$GPGSV,4,4,13,22,02,070,*4E

11:49:47.126$GLGSV,2,1,08,82,77,236,23,80,63,333,25,79,51,129,26,83,20,217,35*64

11:49:47.126$GLGSV,2,2,08,81,45,032,23,78,09,137,,73,08,322,,72,00,000,*6C

11:49:47.129$GPGSA,A,3,06,11,13,15,17,19,24,28,30,,,,1.1,0.8,0.7*3C

11:49:47.129$GPVTG,220.8,T,220.8,M,3.1,N,5.7,K,A*23

11:49:47.129$GPRMC,174948,A,4011.579441,N,10505.360936,W,3.1,220.8,230716,7.7,E,A*03

11:49:47.129$GPGGA,174948,4011.579441,N,10505.360936,W,1,09,0.8,1549.0,M,-21.0,M,,*47

11:49:48.125$GPGSV,3,1,12,06,23,178,35,13,20,241,36,15,13,275,33,17,80,309,30*74

11:49:48.125$GPGSV,3,2,12,19,56,244,34,24,18,314,31,28,58,064,26,30,26,154,35*7E

11:49:48.125$GPGSV,3,3,12,01,25,047,,03,01,092,,07,01,150,,22,02,070,*71

11:49:48.125$GLGSV,2,1,07,82,77,236,29,80,63,333,27,79,51,129,24,83,20,217,35*61

11:49:48.125$GLGSV,2,2,07,78,09,137,,73,08,322,,72,00,000,*5B

11:49:48.128$GPGSA,A,3,06,13,15,17,19,24,28,30,,,,,1.1,0.8,0.7*3C

11:49:48.128$GPVTG,219.1,T,219.1,M,0.3,N,0.6,K,A*26

11:49:48.128$GPRMC,174949,A,4011.579393,N,10505.361113,W,0.3,219.1,230716,7.7,E,A*06

11:49:48.129$GPGGA,174949,4011.579393,N,10505.361113,W,1,08,0.8,1546.0,M,-21.0,M,,*4E

11:49:49.120$GPGSV,4,1,13,06,23,178,30,13,20,241,37,15,13,275,26,17,80,309,28*7B

11:49:49.120$GPGSV,4,2,13,19,56,244,32,24,18,314,23,28,58,064,27,30,26,154,34*7D

11:49:49.120$GPGSV,4,3,13,01,25,047,,03,01,092,,07,01,150,,11,11,045,*73

11:49:49.120$GPGSV,4,4,13,22,02,070,*4E

11:49:49.120$GLGSV,2,1,08,82,77,236,29,80,63,333,24,79,51,129,26,83,20,217,34*6E

11:49:49.120$GLGSV,2,2,08,78,09,137,,73,08,322,,81,45,032,,72,00,000,*6D

11:49:49.120$GPGSA,A,3,06,13,15,17,19,24,28,30,,,,,1.1,0.8,0.7*3C

11:49:49.121$GPVTG,219.1,T,219.1,M,0.4,N,0.7,K,A*20

11:49:49.121$GPRMC,174950,A,4011.579593,N,10505.360945,W,0.4,219.1,230716,7.7,E,A*05

11:49:49.121$GPGGA,174950,4011.579593,N,10505.360945,W,1,08,0.8,1546.0,M,-21.0,M,,*4A

11:49:50.123$GPGSV,4,1,13,06,23,178,28,13,20,241,38,15,13,275,26,17,80,309,33*77

11:49:50.123$GPGSV,4,2,13,19,56,244,32,24,18,314,27,28,58,064,26,30,26,154,36*7A

11:49:50.123$GPGSV,4,3,13,01,25,047,,03,01,092,,07,01,150,,11,11,045,*73

11:49:50.123$GPGSV,4,4,13,22,02,070,*4E

11:49:50.124$GLGSV,2,1,08,73,08,322,22,82,77,236,34,80,63,333,27,79,51,129,31*62

11:49:50.124$GLGSV,2,2,08,83,20,217,34,81,45,032,25,78,09,137,,72,00,000,*6F

11:49:50.127$GPGSA,A,3,06,13,15,17,19,24,28,30,,,,,1.1,0.8,0.7*3C

11:49:50.127$GPVTG,213.0,T,213.0,M,2.9,N,5.4,K,A*29

11:49:50.127$GPRMC,174951,A,4011.579388,N,10505.361107,W,2.9,213.0,230716,7.7,E,A*03

11:49:50.127$GPGGA,174951,4011.579388,N,10505.361107,W,1,08,0.8,1545.0,M,-21.0,M,,*4B

11:49:51.105$GPGSV,4,1,13,06,23,178,28,13,20,241,38,15,13,275,26,17,80,309,33*77

11:49:51.105$GPGSV,4,2,13,19,56,244,32,24,18,314,27,28,58,064,26,30,26,154,36*7A

11:49:51.105$GPGSV,4,3,13,01,25,047,,03,01,092,,07,01,150,,11,11,045,*73

11:49:51.105$GPGSV,4,4,13,22,02,070,*4E

11:49:51.105$GLGSV,2,1,08,73,08,322,22,82,77,236,34,80,63,333,27,79,51,129,31*62

11:49:51.105$GLGSV,2,2,08,83,20,217,34,81,45,032,25,78,09,137,,72,00,000,*6F

11:49:51.106$GPGSA,A,3,06,13,15,17,19,24,28,30,,,,,1.1,0.8,0.7*3C

11:49:51.106$GPVTG,218.8,T,218.8,M,3.0,N,5.5,K,A*20

11:49:51.106$GPRMC,174952,A,4011.578867,N,10505.361616,W,3.0,218.8,230716,7.7,E,A*07

11:49:51.106$GPGGA,174952,4011.578867,N,10505.361616,W,1,08,0.8,1544.0,M,-21.0,M,,*45

11:49:52.125$GPGSV,4,1,13,06,23,178,30,11,11,045,23,13,20,241,36,15,13,275,28*7A

11:49:52.126$GPGSV,4,2,13,17,80,309,33,19,56,244,32,24,18,314,27,28,58,064,26*7C

11:49:52.126$GPGSV,4,3,13,30,26,154,37,01,25,047,,03,01,092,,07,01,150,*71

11:49:52.126$GPGSV,4,4,13,22,02,070,*4E

11:49:52.126$GLGSV,2,1,07,82,77,236,31,80,63,333,25,79,51,129,26,83,20,217,35*68

11:49:52.126$GLGSV,2,2,07,78,09,137,,73,08,322,,72,00,000,*5B

11:49:52.129$GPGSA,A,3,06,11,13,15,17,19,24,28,30,,,,1.1,0.8,0.7*3C

11:49:52.129$GPVTG,217.2,T,217.2,M,2.7,N,4.9,K,A*2B

11:49:52.129$GPRMC,174953,A,4011.578387,N,10505.362141,W,2.7,217.2,230716,7.7,E,A*06

11:49:52.129$GPGGA,174953,4011.578387,N,10505.362141,W,1,09,0.8,1545.0,M,-21.0,M,,*47

11:49:53.135$GPGSV,3,1,12,06,23,178,30,13,20,241,37,15,13,275,32,17,80,309,30*71

11:49:53.135$GPGSV,3,2,12,19,56,244,33,24,18,314,27,28,58,064,26,30,26,154,35*7E

11:49:53.135$GPGSV,3,3,12,01,25,047,,03,01,092,,07,01,150,,22,02,070,*71

11:49:53.135$GLGSV,2,1,08,82,77,236,31,80,63,333,23,79,51,129,26,83,20,217,35*61

11:49:53.135$GLGSV,2,2,08,78,09,137,,73,08,322,,81,45,032,,72,00,000,*6D

11:49:53.137$GPGSA,A,3,06,13,15,17,19,24,28,30,,,,,1.1,0.8,0.7*3C

11:49:53.137$GPVTG,222.7,T,222.7,M,2.9,N,5.4,K,A*29

11:49:53.137$GPRMC,174954,A,4011.577834,N,10505.362755,W,2.9,222.7,230716,7.7,E,A*03

11:49:53.137$GPGGA,174954,4011.577834,N,10505.362755,W,1,08,0.8,1545.0,M,-21.0,M,,*4E

11:49:54.109$GPGSV,4,1,13,06,23,178,34,13,20,241,36,15,13,275,32,17,80,309,31*73

11:49:54.109$GPGSV,4,2,13,19,56,244,35,24,18,314,25,28,58,064,27,30,26,154,34*7C

11:49:54.109$GPGSV,4,3,13,01,25,047,,03,01,092,,07,01,150,,11,11,045,*73

11:49:54.109$GPGSV,4,4,13,22,02,070,*4E

11:49:54.109$GLGSV,2,1,07,78,09,137,24,82,77,236,29,79,51,129,25,83,20,217,34*6F

11:49:54.109$GLGSV,2,2,07,73,08,322,,81,45,032,,72,00,000,*51

11:49:54.110$GPGSA,A,3,06,13,15,17,19,24,28,30,,,,,1.0,0.7,0.7*32

11:49:54.110$GPVTG,228.7,T,228.7,M,3.1,N,5.7,K,A*23

11:49:54.110$GPRMC,174955,A,4011.577339,N,10505.363527,W,3.1,228.7,230716,7.7,E,A*01

11:49:54.110$GPGGA,174955,4011.577339,N,10505.363527,W,1,08,0.7,1545.0,M,-21.0,M,,*40

11:49:55.106$GPGSV,4,1,13,06,23,178,30,13,20,241,38,15,13,275,36,17,80,309,30*7C

11:49:55.106$GPGSV,4,2,13,19,56,244,35,24,18,314,28,28,58,064,30,30,26,154,36*75

11:49:55.106$GPGSV,4,3,13,01,25,047,,03,01,092,,07,01,150,,11,11,045,*73

11:49:55.106$GPGSV,4,4,13,22,02,070,*4E

11:49:55.106$GLGSV,2,1,06,82,77,236,28,83,20,217,32,73,08,322,,80,63,333,*6A

11:49:55.106$GLGSV,2,2,06,81,45,032,,72,00,000,*6F

11:49:55.108$GPGSA,A,3,06,13,15,17,19,24,28,30,,,,,1.0,0.7,0.7*32

11:49:55.108$GPVTG,228.3,T,228.3,M,3.8,N,7.1,K,A*2E

11:49:55.108$GPRMC,174956,A,4011.576824,N,10505.364464,W,3.8,228.3,230716,7.7,E,A*08

11:49:55.108$GPGGA,174956,4011.576824,N,10505.364464,W,1,08,0.7,1545.0,M,-21.0,M,,*44

11:49:56.107$GPGSV,4,1,13,06,23,178,26,13,20,241,37,15,13,275,35,17,80,309,30*77

11:49:56.107$GPGSV,4,2,13,19,56,244,34,24,18,314,24,28,58,064,29,30,26,154,36*70

11:49:56.107$GPGSV,4,3,13,01,25,047,,03,01,092,,07,01,150,,11,11,045,*73

11:49:56.107$GPGSV,4,4,13,22,02,070,*4E

11:49:56.107$GLGSV,2,1,08,82,77,236,30,79,51,129,23,83,20,217,33,78,09,137,*6F

11:49:56.107$GLGSV,2,2,08,73,08,322,,80,63,333,,81,45,032,,72,00,000,*60

11:49:56.109$GPGSA,A,3,06,13,15,17,19,24,28,30,,,,,1.0,0.7,0.7*32

11:49:56.109$GPVTG,223.6,T,223.6,M,3.4,N,6.3,K,A*21

11:49:56.109$GPRMC,174957,A,4011.576142,N,10505.365384,W,3.4,223.6,230716,7.7,E,A*0A

11:49:56.109$GPGGA,174957,4011.576142,N,10505.365384,W,1,08,0.7,1546.0,M,-21.0,M,,*47

11:49:57.112$GPGSV,4,1,13,06,23,178,32,13,20,241,35,15,13,275,33,17,80,309,36*70

11:49:57.112$GPGSV,4,2,13,19,56,244,34,24,18,314,27,28,58,064,29,30,26,154,37*72

11:49:57.112$GPGSV,4,3,13,01,25,047,,03,01,092,,07,01,150,,11,11,045,*73

11:49:57.112$GPGSV,4,4,13,22,02,070,*4E

11:49:57.112$GLGSV,2,1,08,82,77,236,35,80,63,333,31,79,51,129,31,83,20,217,32*67

11:49:57.112$GLGSV,2,2,08,81,45,032,29,78,09,137,,73,08,322,,72,00,000,*66

11:49:57.114$GPGSA,A,3,06,13,15,17,19,24,28,30,,,,,1.0,0.7,0.7*32

11:49:57.114$GPVTG,223.1,T,223.1,M,2.2,N,4.0,K,A*27

11:49:57.114$GPRMC,174958,A,4011.575660,N,10505.366051,W,2.2,223.1,230716,7.7,E,A*09

11:49:57.114$GPGGA,174958,4011.575660,N,10505.366051,W,1,08,0.7,1547.0,M,-21.0,M,,*45

11:49:58.113$GPGSV,4,1,13,01,25,047,30,06,23,178,26,11,11,045,30,13,20,241,28*7A

11:49:58.114$GPGSV,4,2,13,15,13,275,33,17,80,309,35,19,56,244,34,24,18,314,25*79

11:49:58.114$GPGSV,4,3,13,28,58,064,27,30,26,154,28,03,01,092,,07,01,150,*7A

11:49:58.114$GPGSV,4,4,13,22,02,070,*4E

11:49:58.114$GLGSV,2,1,08,73,08,322,24,82,77,236,34,80,63,333,28,79,51,129,27*6C

11:49:58.114$GLGSV,2,2,08,83,20,217,26,81,45,032,29,78,09,137,,72,00,000,*60

11:49:58.116$GPGSA,A,3,01,06,11,13,15,17,19,24,28,30,,,1.0,0.7,0.7*33

11:49:58.116$GPVTG,230.9,T,230.9,M,1.7,N,3.2,K,A*24

11:49:58.116$GPRMC,174959,A,4011.575183,N,10505.366736,W,1.7,230.9,230716,7.7,E,A*08

11:49:58.116$GPGGA,174959,4011.575183,N,10505.366736,W,1,10,0.7,1547.0,M,-21.0,M,,*41

11:49:59.115$GPGSV,4,1,13,01,25,047,28,06,23,178,29,11,11,045,26,13,20,241,35*77

11:49:59.115$GPGSV,4,2,13,15,13,275,23,17,80,309,32,19,56,244,29,24,18,314,25*73

11:49:59.115$GPGSV,4,3,13,28,58,064,32,30,26,154,27,03,01,092,,07,01,150,*71

11:49:59.115$GPGSV,4,4,13,22,02,070,*4E

11:49:59.115$GLGSV,2,1,07,73,08,322,23,82,77,236,27,80,63,333,24,83,20,217,26*66

11:49:59.115$GLGSV,2,2,07,81,45,032,33,78,09,137,,72,00,000,*5D

11:49:59.116$GPGSA,A,3,01,06,11,13,15,17,19,24,28,30,,,1.0,0.7,0.7*33

11:49:59.116$GPVTG,260.7,T,260.7,M,2.2,N,4.0,K,A*27

11:49:59.116$GPRMC,175000,A,4011.575039,N,10505.367520,W,2.2,260.7,230716,7.7,E,A*05

11:49:59.116$GPGGA,175000,4011.575039,N,10505.367520,W,1,10,0.7,1549.0,M,-21.0,M,,*4F

11:50:00.107$GPGSV,4,1,13,01,25,047,27,06,23,178,31,11,11,045,23,13,20,241,36*77

11:50:00.107$GPGSV,4,2,13,15,13,275,33,17,80,309,34,19,56,244,33,24,18,314,25*7F

11:50:00.107$GPGSV,4,3,13,28,58,064,30,30,26,154,26,03,01,092,,07,01,150,*72

11:50:00.107$GPGSV,4,4,13,22,02,070,*4E

11:50:00.107$GLGSV,2,1,08,73,08,322,26,82,77,236,32,80,63,333,29,83,20,217,25*66

11:50:00.107$GLGSV,2,2,08,81,45,032,27,78,09,137,,79,51,129,,72,00,000,*67

11:50:00.108$GPGSA,A,3,01,06,11,13,15,17,19,24,28,30,,,1.0,0.7,0.7*33

11:50:00.108$GPVTG,323.5,T,323.5,M,2.6,N,4.9,K,A*2A

11:50:00.109$GPRMC,175001,A,4011.575297,N,10505.368449,W,2.6,323.5,230716,7.7,E,A*03

11:50:00.109$GPGGA,175001,4011.575297,N,10505.368449,W,1,10,0.7,1547.0,M,-21.0,M,,*47

11:50:01.108$GPGSV,4,1,13,01,25,047,30,06,23,178,29,11,11,045,32,13,20,241,34*7A

11:50:01.108$GPGSV,4,2,13,15,13,275,32,17,80,309,26,19,56,244,31,24,18,314,30*7B

11:50:01.108$GPGSV,4,3,13,28,58,064,32,30,26,154,29,03,01,092,,07,01,150,*7F

11:50:01.108$GPGSV,4,4,13,22,02,070,*4E

11:50:01.108$GLGSV,2,1,08,73,08,322,23,82,77,236,25,80,63,333,26,79,51,129,25*67

11:50:01.108$GLGSV,2,2,08,83,20,217,31,81,45,032,35,78,09,137,,72,00,000,*6B

11:50:01.109$GPGSA,A,3,01,06,11,13,15,17,19,24,28,30,,,1.0,0.7,0.7*33

11:50:01.109$GPVTG,309.8,T,309.8,M,3.4,N,6.3,K,A*21

11:50:01.110$GPRMC,175002,A,4011.575889,N,10505.369450,W,3.4,309.8,230716,7.7,E,A*0A

11:50:01.110$GPGGA,175002,4011.575889,N,10505.369450,W,1,10,0.7,1546.0,M,-21.0,M,,*49

11:50:02.103$GPGSV,3,1,12,01,25,047,30,06,23,178,30,11,11,045,28,13,20,241,33*78

11:50:02.103$GPGSV,3,2,12,15,13,275,28,17,80,309,28,19,56,244,26,22,02,070,23*70

11:50:02.104$GPGSV,3,3,12,28,58,064,29,30,26,154,27,03,01,092,,07,01,150,*7D

11:50:02.104$GLGSV,2,1,06,82,77,236,25,80,63,333,24,83,20,217,30,81,45,032,35*63

11:50:02.104$GLGSV,2,2,06,78,09,137,,72,00,000,*65

11:50:02.105$GPGSA,A,3,01,06,11,13,15,17,19,22,28,30,,,1.0,0.7,0.7*35

11:50:02.105$GPVTG,313.9,T,313.9,M,2.6,N,4.8,K,A*2B

11:50:02.105$GPRMC,175003,A,4011.576436,N,10505.370430,W,2.6,313.9,230716,7.7,E,A*07

11:50:02.105$GPGGA,175003,4011.576436,N,10505.370430,W,1,10,0.7,1546.0,M,-21.0,M,,*4D

11:50:03.104$GPGSV,3,1,11,01,25,047,31,06,23,178,26,11,11,045,31,13,20,241,31*77

11:50:03.104$GPGSV,3,2,11,17,80,309,30,19,56,244,24,28,58,064,29,30,26,154,25*7E

11:50:03.104$GPGSV,3,3,11,03,01,092,,07,01,150,,24,18,314,*4B

11:50:03.104$GLGSV,2,1,08,82,77,236,24,80,63,333,25,79,51,129,25,83,20,217,26*62

11:50:03.104$GLGSV,2,2,08,81,45,032,36,78,09,137,,73,08,322,,72,00,000,*68

11:50:03.106$GPGSA,A,3,01,06,11,13,17,19,28,30,,,,,1.0,0.7,0.7*31

11:50:03.106$GPVTG,322.8,T,322.8,M,2.5,N,4.7,K,A*27

11:50:03.106$GPRMC,175004,A,4011.576941,N,10505.371204,W,2.5,322.8,230716,7.7,E,A*0D

11:50:03.106$GPGGA,175004,4011.576941,N,10505.371204,W,1,08,0.7,1546.0,M,-21.0,M,,*4E

11:50:04.102$GPGSV,3,1,12,01,25,047,34,11,11,045,33,13,20,241,30,15,13,275,27*7C

11:50:04.102$GPGSV,3,2,12,17,80,309,30,19,56,244,28,28,58,064,31,30,26,154,26*7B

11:50:04.103$GPGSV,3,3,12,03,01,092,,07,01,150,,22,02,070,,24,18,314,*7D

11:50:04.103$GLGSV,2,1,07,82,77,236,26,80,63,333,30,83,20,217,28,81,45,032,33*6B

11:50:04.103$GLGSV,2,2,07,78,09,137,,73,08,322,,72,00,000,*5B

11:50:04.105$GPGSA,A,3,01,11,13,15,17,19,28,30,,,,,1.0,0.7,0.7*33

11:50:04.105$GPVTG,307.4,T,307.4,M,1.7,N,3.2,K,A*24

11:50:04.105$GPRMC,175005,A,4011.577245,N,10505.371999,W,1.7,307.4,230716,7.7,E,A*07

11:50:04.105$GPGGA,175005,4011.577245,N,10505.371999,W,1,08,0.7,1546.0,M,-21.0,M,,*4E

11:50:05.103$GPGSV,3,1,12,01,25,047,36,11,11,045,39,13,20,241,32,15,13,275,31*71

11:50:05.103$GPGSV,3,2,12,17,80,309,25,28,58,064,33,30,26,154,26,03,01,092,*77

11:50:05.103$GPGSV,3,3,12,06,23,178,,07,01,150,,22,02,070,,24,18,314,*7D

11:50:05.103$GLGSV,2,1,08,82,77,236,24,80,63,333,24,79,51,129,30,83,20,217,26*67

11:50:05.103$GLGSV,2,2,08,81,45,032,34,78,09,137,,73,08,322,,72,00,000,*6A

11:50:05.104$GPGSA,A,3,01,11,13,15,17,28,30,,,,,,1.0,0.7,0.7*3B

11:50:05.104$GPVTG,,T,,M,0.0,N,0.0,K,A*23

11:50:05.104$GPRMC,175006,A,4011.577210,N,10505.372541,W,0.0,,230716,7.7,E,A*26

11:50:05.104$GPGGA,175006,4011.577210,N,10505.372541,W,1,07,0.7,1546.0,M,-21.0,M,,*48

11:50:06.094$GPGSV,3,1,12,01,25,047,36,11,11,045,39,13,20,241,32,15,13,275,31*71

11:50:06.094$GPGSV,3,2,12,17,80,309,25,28,58,064,33,30,26,154,26,03,01,092,*77

11:50:06.094$GPGSV,3,3,12,06,23,178,,07,01,150,,22,02,070,,24,18,314,*7D

11:50:06.094$GLGSV,2,1,08,82,77,236,24,80,63,333,24,79,51,129,30,83,20,217,26*67

11:50:06.094$GLGSV,2,2,08,81,45,032,34,78,09,137,,73,08,322,,72,00,000,*6A

11:50:06.094$GPGSA,A,3,01,11,13,15,17,28,30,,,,,,1.0,0.7,0.7*3B

11:50:06.094$GPVTG,,T,,M,0.0,N,0.0,K,A*23

11:50:06.094$GPRMC,175007,A,4011.577116,N,10505.372695,W,0.0,,230716,7.7,E,A*28

11:50:06.094$GPGGA,175007,4011.577116,N,10505.372695,W,1,07,0.7,1546.0,M,-21.0,M,,*46

11:50:07.102$GPGSV,3,1,11,01,25,047,36,11,11,045,36,13,20,241,28,22,02,070,24*71

11:50:07.102$GPGSV,3,2,11,28,58,064,34,30,26,154,27,03,01,092,,06,23,178,*78

11:50:07.102$GPGSV,3,3,11,07,01,150,,15,13,275,,24,18,314,*44

11:50:07.102$GLGSV,2,1,07,82,77,236,24,80,63,333,26,79,51,129,27,81,45,032,34*6B

11:50:07.102$GLGSV,2,2,07,78,09,137,,83,20,217,,72,00,000,*59

11:50:07.103$GPGSA,A,3,01,11,13,22,28,30,,,,,,,1.1,0.8,0.7*37

11:50:07.103$GPVTG,331.0,T,331.0,M,3.2,N,5.9,K,A*2E

11:50:07.103$GPRMC,175008,A,4011.578000,N,10505.372896,W,3.2,331.0,230716,7.7,E,A*0D

11:50:07.103$GPGGA,175008,4011.578000,N,10505.372896,W,1,06,0.8,1547.0,M,-21.0,M,,*42

11:50:08.107$GPGSV,3,1,12,01,25,047,34,06,23,178,25,11,11,045,36,13,20,241,24*71

11:50:08.107$GPGSV,3,2,12,17,80,309,24,28,58,064,36,30,26,154,29,03,01,092,*7C

11:50:08.107$GPGSV,3,3,12,07,01,150,,15,13,275,,19,56,244,,24,18,314,*7E

11:50:08.107$GLGSV,2,1,08,73,08,322,23,82,77,236,22,80,63,333,29,79,51,129,29*63

11:50:08.107$GLGSV,2,2,08,81,45,032,30,78,09,137,,83,20,217,,72,00,000,*6C

11:50:08.108$GPGSA,A,3,01,06,11,13,17,28,30,,,,,,1.1,0.8,0.7*37

11:50:08.108$GPVTG,356.1,T,356.1,M,3.4,N,6.4,K,A*26

11:50:08.108$GPRMC,175009,A,4011.579128,N,10505.373078,W,3.4,356.1,230716,7.7,E,A*09

11:50:08.108$GPGGA,175009,4011.579128,N,10505.373078,W,1,07,0.8,1546.0,M,-21.0,M,,*40

11:50:09.093$GPGSV,3,1,12,01,25,047,34,06,23,178,25,11,11,045,36,13,20,241,24*71

11:50:09.094$GPGSV,3,2,12,17,80,309,24,28,58,064,36,30,26,154,29,03,01,092,*7C

11:50:09.094$GPGSV,3,3,12,07,01,150,,15,13,275,,19,56,244,,24,18,314,*7E

11:50:09.094$GLGSV,2,1,08,73,08,322,23,82,77,236,22,80,63,333,29,79,51,129,29*63

11:50:09.094$GLGSV,2,2,08,81,45,032,30,78,09,137,,83,20,217,,72,00,000,*6C

11:50:09.095$GPGSA,A,3,01,06,11,13,17,28,30,,,,,,1.1,0.8,0.7*37

11:50:09.095$GPVTG,9.4,T,9.4,M,3.5,N,6.5,K,A*26

11:50:09.095$GPRMC,175010,A,4011.580247,N,10505.372898,W,3.5,9.4,230716,7.7,E,A*07

11:50:09.095$GPGGA,175010,4011.580247,N,10505.372898,W,1,07,0.8,1546.0,M,-21.0,M,,*43

